[
    {
        "id": "019d6d0a-bb30-721d-b925-542fa89789b9",
        "name": "Carrickfergus Castle",
        "country": "GB",
        "region": "GB-NIR",
        "coordinates": {
            "latitude": 54.71367,
            "longitude": -5.80641
        },
        "built": "12th Century",
        "condition": "Intact",
        "homepage": "https://www.communities-ni.gov.uk/heritage-sites/carrickfergus-castle",
        "ownedBy": "Northern Ireland Environment Agency",
        "type": "Square Keep"
    },
    {
        "id": "019d6d0a-bb30-721d-b925-5e77b6930d00",
        "name": "Castle Balfour",
        "country": "GB",
        "region": "GB-NIR",
        "coordinates": {
            "latitude": 54.25062,
            "longitude": -7.44525
        },
        "built": "17th Century",
        "condition": "Ruins",
        "homepage": "https://www.communities-ni.gov.uk/heritage-sites/castle-balfour",
        "ownedBy": "Northern Ireland Environment Agency",
        "type": "Square Keep"
    },
    {
        "id": "019d6d0a-bb30-721d-b925-45bf9790794c",
        "name": "Clough Castle",
        "country": "GB",
        "region": "GB-NIR",
        "coordinates": {
            "latitude": 54.29214,
            "longitude": -5.83657
        },
        "built": "12-13th Century",
        "condition": "Ruins",
        "homepage": "https://www.communities-ni.gov.uk/heritage-sites/clough-castle",
        "ownedBy": "State Care Historic Monument",
        "type": "Motte and Bailey"
    },
    {
        "id": "019d6d0a-bb30-721d-b925-4a6bf06eda04",
        "name": "Dundrum Castle",
        "country": "GB",
        "region": "GB-NIR",
        "coordinates": {
            "latitude": 54.26193,
            "longitude": -5.84496
        },
        "built": "13th Century",
        "condition": "Ruins",
        "homepage": "https://www.communities-ni.gov.uk/heritage-sites/dundrum-castle",
        "ownedBy": "State Care Historic Monument",
        "type": "Round Keep"
    },
    {
        "id": "019d6d0a-bb30-721d-b925-5a465f3a35a8",
        "name": "Dunluce Castle",
        "country": "GB",
        "region": "GB-NIR",
        "coordinates": {
            "latitude": 55.21069,
            "longitude": -6.57961
        },
        "built": "13th Century",
        "condition": "Ruins",
        "homepage": "https://www.communities-ni.gov.uk/heritage-sites/dunluce-castle",
        "ownedBy": "Northern Ireland Environment Agency",
        "type": "Square Keep"
    },
    {
        "id": "019d6d0a-bb30-721d-b925-4debd214e03a",
        "name": "Greencastle",
        "country": "GB",
        "region": "GB-NIR",
        "coordinates": {
            "latitude": 54.04093,
            "longitude": -6.09702
        },
        "built": "13th Century",
        "condition": "Ruins",
        "homepage": "https://www.communities-ni.gov.uk/heritage-sites/greencastle",
        "ownedBy": "State Care Historic Monument",
        "type": "Square Keep"
    },
    {
        "id": "019d6d0a-bb30-721d-b925-535af73272e3",
        "name": "Harry Avery's Castle",
        "country": "GB",
        "region": "GB-NIR",
        "coordinates": {
            "latitude": 54.71335,
            "longitude": -7.39312
        },
        "built": "14th Century",
        "condition": "Ruins",
        "homepage": "https://www.communities-ni.gov.uk/heritage-sites/harry-averys-castle",
        "ownedBy": "Northern Ireland Environment Agency",
        "type": "Motte and Bailey"
    },
    {
        "id": "019d72bd-61f3-7608-962b-f45bc1874971",
        "name": "Killyleagh Castle",
        "country": "GB",
        "region": "GB-NIR",
        "coordinates": {
            "latitude": 54.40183,
            "longitude": -5.65321
        },
        "built": "12th Century",
        "condition": "Intact",
        "ownedBy": "Hamilton Family",
        "type": "Square Keep"
    }
]
