[
    {
        "id": "019d6d69-ab71-71be-943e-e178ecd6a795",
        "name": "Aberdour Castle",
        "country": "GB",
        "region": "GB-SCT",
        "coordinates": {
            "latitude": 56.055239,
            "longitude": -3.298292
        },
        "built": "13th Century",
        "condition": "Fragmented Remains",
        "homepage": "https://www.historicenvironment.scot/visit-a-place/places/aberdour-castle-and-gardens",
        "ownedBy": "Historic Environment Scotland",
        "type": "Square Keep"
    },
    {
        "id": "019d72bd-61f4-7279-af42-2b0f2b62b1af",
        "name": "Ardrossan Castle",
        "country": "GB",
        "region": "GB-SCT",
        "coordinates": {
            "latitude": 55.641961,
            "longitude": -4.810145
        },
        "built": "12th Century",
        "condition": "Ruins",
        "ownedBy": "Eglintoun Family",
        "type": "Square Keep"
    },
    {
        "id": "019d72bd-61f4-7279-af42-4470e09d830f",
        "name": "Auchen Castle",
        "country": "GB",
        "region": "GB-SCT",
        "coordinates": {
            "latitude": 55.327472,
            "longitude": -3.479227
        },
        "built": "13th Century",
        "condition": "Ruins",
        "ownedBy": "Private",
        "type": "Keepless"
    },
    {
        "id": "019d72bd-61f4-7279-af42-2d18c876d8f2",
        "name": "Auchenharvie Castle",
        "country": "GB",
        "region": "GB-SCT",
        "coordinates": {
            "latitude": 55.663996,
            "longitude": -4.605009
        },
        "built": "16th Century",
        "condition": "Ruins",
        "ownedBy": "Auchenharvie Farm",
        "type": "Square Keep"
    },
    {
        "id": "019d72bd-61f4-7279-af42-1a208c06104b",
        "name": "Balgonie Castle",
        "country": "GB",
        "region": "GB-SCT",
        "coordinates": {
            "latitude": 56.193759,
            "longitude": -3.109238
        },
        "built": "14th Century",
        "condition": "Restored",
        "ownedBy": "Private",
        "type": "Square Keep"
    },
    {
        "id": "019dc3af-cfbd-7749-a33c-e6a67908ed28",
        "name": "Balvaird Castle",
        "country": "GB",
        "region": "GB-SCT",
        "coordinates": {
            "latitude": 56.2890453446857,
            "longitude": -3.3427079300509304
        },
        "built": "13-14th Century",
        "condition": "Ruins",
        "homepage": "https://www.historicenvironment.scot/visit-a-place/places/balvaird-castle",
        "ownedBy": "Historic Environment Scotland",
        "type": "Tower House"
    },
    {
        "id": "019dc3af-cfbd-7749-a33c-cb036b20cca6",
        "name": "Blackness Castle",
        "country": "GB",
        "region": "GB-SCT",
        "coordinates": {
            "latitude": 56.0060639676768,
            "longitude": -3.5161752036774594
        },
        "built": "15th Century",
        "condition": "Intact",
        "homepage": "https://www.historicenvironment.scot/visit-a-place/places/blackness-castle",
        "ownedBy": "Historic Environment Scotland",
        "type": "Fort"
    },
    {
        "id": "019d6d69-ab71-71be-943e-ee95224cd476",
        "name": "Bothwell Castle",
        "country": "GB",
        "region": "GB-SCT",
        "coordinates": {
            "latitude": 55.809453,
            "longitude": -4.094924
        },
        "built": "13th Century",
        "condition": "Ruins",
        "homepage": "https://www.historicenvironment.scot/visit-a-place/places/bothwell-castle",
        "ownedBy": "Historic Environment Scotland",
        "type": "Round Keep"
    },
    {
        "id": "019d72bd-61f4-7279-af42-14e906a2c915",
        "name": "Broughty Castle",
        "country": "GB",
        "region": "GB-SCT",
        "coordinates": {
            "latitude": 56.462928,
            "longitude": -2.870224
        },
        "built": "15th Century",
        "condition": "Intact",
        "homepage": "https://www.historicenvironment.scot/visit-a-place/places/broughty-castle",
        "ownedBy": "Fiennes Family",
        "type": "Square Keep"
    },
    {
        "id": "019dc3af-cfbd-7749-a33c-e1f618b64896",
        "name": "Burleigh Castle",
        "country": "GB",
        "region": "GB-SCT",
        "coordinates": {
            "latitude": 56.22588489246636,
            "longitude": -3.4065166689100237
        },
        "built": "15th Century",
        "condition": "Ruins",
        "homepage": "https://www.historicenvironment.scot/visit-a-place/places/burleigh-castle",
        "ownedBy": "Historic Environment Scotland",
        "type": "Tower House"
    },
    {
        "id": "019dc040-91c7-7239-a978-7a45cce48d43",
        "name": "Cadzow Castle",
        "country": "GB",
        "region": "GB-SCT",
        "coordinates": {
            "latitude": 55.76059684192466,
            "longitude": -4.01732004457313
        },
        "accessible": false,
        "built": "16th Century",
        "condition": "Ruins",
        "homepage": "https://www.historicenvironment.scot/visit-a-place/places/cadzow-castle",
        "ownedBy": "Historic Environment Scotland",
        "type": "Unknown"
    },
    {
        "id": "019d6d69-ab71-71be-943f-09ca73998280",
        "name": "Caerlaverock Castle",
        "country": "GB",
        "region": "GB-SCT",
        "coordinates": {
            "latitude": 54.975693,
            "longitude": -3.524049
        },
        "built": "13th Century",
        "condition": "Ruins",
        "homepage": "https://www.historicenvironment.scot/visit-a-place/places/caerlaverock-castle",
        "ownedBy": "Historic Environment Scotland",
        "type": "Keepless"
    },
    {
        "id": "019d6d69-ab71-71be-943f-3472e0751f13",
        "name": "Calvay Castle",
        "country": "GB",
        "region": "GB-SCT",
        "coordinates": {
            "latitude": 57.143237,
            "longitude": -7.263722
        },
        "built": "15th Century",
        "condition": "Ruins",
        "ownedBy": "Historic Environment Scotland",
        "type": "Square Keep"
    },
    {
        "id": "019dc040-91c7-7239-a978-3bfb5130deca",
        "name": "Cardoness Castle",
        "country": "GB",
        "region": "GB-SCT",
        "coordinates": {
            "latitude": 54.87244641332604,
            "longitude": -4.198021300471766
        },
        "built": "15th Century",
        "condition": "Partial Ruins",
        "homepage": "https://www.historicenvironment.scot/visit-a-place/places/cardoness-castle",
        "ownedBy": "Historic Environment Scotland",
        "type": "Tower House"
    },
    {
        "id": "019dc3af-cfbd-7749-a33c-d5f573d26872",
        "name": "Carnasserie Castle",
        "country": "GB",
        "region": "GB-SCT",
        "coordinates": {
            "latitude": 56.15119547669404,
            "longitude": -5.480586282354813
        },
        "built": "16th Century",
        "condition": "Partial Ruins",
        "homepage": "https://www.historicenvironment.scot/visit-a-place/places/carnasserie-castle",
        "ownedBy": "Historic Environment Scotland",
        "type": "Tower House"
    },
    {
        "id": "019dc040-91c7-7239-a978-363d83dde713",
        "name": "Carsluith Castle",
        "country": "GB",
        "region": "GB-SCT",
        "coordinates": {
            "latitude": 54.8595240396593,
            "longitude": -4.34668538165663
        },
        "built": "16th Century",
        "condition": "Ruins",
        "homepage": "https://www.historicenvironment.scot/visit-a-place/places/carsluith-castle",
        "ownedBy": "Historic Environment Scotland",
        "type": "Tower House"
    },
    {
        "id": "019dc3af-cfbd-7749-a33c-dfca3f0350b7",
        "name": "Castle Campbell",
        "country": "GB",
        "region": "GB-SCT",
        "coordinates": {
            "latitude": 56.175082802131065,
            "longitude": -3.674683836485447
        },
        "built": "15th Century",
        "condition": "Partial Ruins",
        "homepage": "https://www.historicenvironment.scot/visit-a-place/places/castle-campbell",
        "ownedBy": "Historic Environment Scotland",
        "type": "Tower House"
    },
    {
        "id": "019dc3af-cfbd-7749-a33d-04496092b8e3",
        "name": "Castle Menzies",
        "country": "GB",
        "region": "GB-SCT",
        "coordinates": {
            "latitude": 56.62391598753121,
            "longitude": -3.896885702609967
        },
        "built": "16th Century",
        "condition": "Intact",
        "ownedBy": "Menzies Charitable Trust",
        "type": "Fortified Manor House"
    },
    {
        "id": "019dc3af-cfbd-7749-a33c-ff65af4dbe82",
        "name": "Castle Stalker",
        "country": "GB",
        "region": "GB-SCT",
        "coordinates": {
            "latitude": 56.571499970082606,
            "longitude": -5.386277070069054
        },
        "alternativeNames": [
            "Caisteal an Stalcaire"
        ],
        "built": "15th Century",
        "condition": "Partially Restored",
        "ownedBy": "Allward Family",
        "type": "Tower House"
    },
    {
        "id": "019d6d69-ab71-71be-943f-04a85e7c585c",
        "name": "Castle Sween",
        "country": "GB",
        "region": "GB-SCT",
        "coordinates": {
            "latitude": 55.947927,
            "longitude": -5.665171
        },
        "built": "12th Century",
        "condition": "Ruins",
        "homepage": "https://www.historicenvironment.scot/visit-a-place/places/castle-sween",
        "ownedBy": "Historic Environment Scotland",
        "type": "Square Keep"
    },
    {
        "id": "019d6e33-1b59-748f-9e3f-68fdb0a383e1",
        "name": "Castle Tioram",
        "country": "GB",
        "region": "GB-SCT",
        "coordinates": {
            "latitude": 56.784636,
            "longitude": -5.829001
        },
        "built": "14th Century",
        "condition": "Ruins",
        "ownedBy": "Historic Environment Scotland",
        "type": "Square Keep"
    },
    {
        "id": "019d6d69-ab71-71be-943f-31825f45d08f",
        "name": "Castle Varrich",
        "country": "GB",
        "region": "GB-SCT",
        "coordinates": {
            "latitude": 58.475758,
            "longitude": -4.435435
        },
        "built": "13th Century",
        "condition": "Ruins",
        "ownedBy": "Historic Environment Scotland",
        "type": "Square Keep"
    },
    {
        "id": "019dc3af-cfbd-7749-a33c-f126ec2eaa56",
        "name": "Claypotts Castle",
        "country": "GB",
        "region": "GB-SCT",
        "coordinates": {
            "latitude": 56.47648734391579,
            "longitude": -2.8900127934006967
        },
        "built": "16th Century",
        "condition": "Partial Ruins",
        "homepage": "https://www.historicenvironment.scot/visit-a-place/places/claypotts-castle",
        "ownedBy": "Historic Environment Scotland",
        "type": "Tower House"
    },
    {
        "id": "019dc040-91c7-7239-a978-6903b6e37540",
        "name": "Coulter Motte",
        "country": "GB",
        "region": "GB-SCT",
        "coordinates": {
            "latitude": 55.61039938388858,
            "longitude": -3.5592075785914887
        },
        "built": "12th Century",
        "condition": "Fragmented Remains",
        "homepage": "https://www.historicenvironment.scot/visit-a-place/places/coulter-motte-hill",
        "ownedBy": "Historic Environment Scotland",
        "type": "Motte and Bailey"
    },
    {
        "id": "019d6d69-ab71-71be-943f-16e82e6eafab",
        "name": "Craigmillar Castle",
        "country": "GB",
        "region": "GB-SCT",
        "coordinates": {
            "latitude": 55.925653,
            "longitude": -3.140871
        },
        "built": "14th Century",
        "condition": "Ruins",
        "homepage": "https://www.historicenvironment.scot/visit-a-place/places/craigmillar-castle",
        "ownedBy": "Historic Environment Scotland",
        "type": "Keepless"
    },
    {
        "id": "019d6d69-ab71-71be-943e-f1faa98c1e27",
        "name": "Craignethan Castle",
        "country": "GB",
        "region": "GB-SCT",
        "coordinates": {
            "latitude": 55.558013,
            "longitude": -3.870873
        },
        "built": "16th Century",
        "condition": "Ruins",
        "homepage": "https://www.historicenvironment.scot/visit-a-place/places/craignethan-castle",
        "ownedBy": "Historic Environment Scotland",
        "type": "Square Keep"
    },
    {
        "id": "019dc040-91c7-7239-a978-7d7f010ff899",
        "name": "Crichton Castle",
        "country": "GB",
        "region": "GB-SCT",
        "coordinates": {
            "latitude": 55.83961291430436,
            "longitude": -2.9914107445692517
        },
        "built": "14th Century",
        "condition": "Ruins",
        "homepage": "https://www.historicenvironment.scot/visit-a-place/places/crichton-castle",
        "ownedBy": "Historic Environment Scotland",
        "type": "Tower House"
    },
    {
        "id": "019d6d69-ab71-71be-943e-f624406e599a",
        "name": "Crookston Castle",
        "country": "GB",
        "region": "GB-SCT",
        "coordinates": {
            "latitude": 55.835144,
            "longitude": -4.355865
        },
        "built": "14th Century",
        "condition": "Ruins",
        "homepage": "https://www.historicenvironment.scot/visit-a-place/places/crookston-castle",
        "ownedBy": "Historic Environment Scotland",
        "type": "Square Keep"
    },
    {
        "id": "019dc040-91c7-7239-a978-5d1613e077a2",
        "name": "Culzean Castle",
        "country": "GB",
        "region": "GB-SCT",
        "coordinates": {
            "latitude": 55.354720451925296,
            "longitude": -4.78930480378736
        },
        "built": "18th Century",
        "condition": "Restored",
        "homepage": "https://www.nts.org.uk/visit/places/culzean",
        "ownedBy": "National Trust for Scotland",
        "type": "Keepless"
    },
    {
        "id": "019d72a8-a3cc-7761-bcc6-3080e73d35e8",
        "name": "Delgatie Castle",
        "country": "GB",
        "region": "GB-SCT",
        "coordinates": {
            "latitude": 57.544012,
            "longitude": -2.412068
        },
        "built": "11th Century",
        "condition": "Intact",
        "ownedBy": "Delgatie Castle Trust",
        "type": "Square Keep"
    },
    {
        "id": "019d6d69-ab71-71be-943f-185dbc468979",
        "name": "Dirleton Castle",
        "country": "GB",
        "region": "GB-SCT",
        "coordinates": {
            "latitude": 56.045915,
            "longitude": -2.778152
        },
        "built": "13th Century",
        "condition": "Ruins",
        "homepage": "https://www.historicenvironment.scot/visit-a-place/places/dirleton-castle",
        "ownedBy": "Historic Environment Scotland",
        "type": "Keepless"
    },
    {
        "id": "019d6d69-ab71-71be-943e-de82e816b4a4",
        "name": "Doune Castle",
        "country": "GB",
        "region": "GB-SCT",
        "coordinates": {
            "latitude": 56.18526,
            "longitude": -4.050157
        },
        "built": "13th Century",
        "condition": "Ruins",
        "homepage": "https://www.historicenvironment.scot/visit-a-place/places/doune-castle",
        "ownedBy": "Historic Environment Scotland",
        "type": "Square Keep"
    },
    {
        "id": "019d72bd-61f4-7279-af42-6ae6b52155a6",
        "name": "Drochil Castle",
        "country": "GB",
        "region": "GB-SCT",
        "coordinates": {
            "latitude": 55.677656,
            "longitude": -3.334149
        },
        "built": "16th Century",
        "condition": "Ruins",
        "ownedBy": "Buccleuch Family",
        "type": "Square Keep"
    },
    {
        "id": "019dc040-91c7-7239-a978-2c4f22828a3a",
        "name": "Druchtag Motte",
        "country": "GB",
        "region": "GB-SCT",
        "coordinates": {
            "latitude": 54.78765,
            "longitude": -4.56850277778
        },
        "built": "12th Century",
        "condition": "Fragmented Remains",
        "homepage": "https://www.historicenvironment.scot/visit-a-place/places/druchtag-motte",
        "ownedBy": "Historic Environment Scotland",
        "type": "Motte and Bailey"
    },
    {
        "id": "019dc040-91c7-7239-a978-473ce6fff6a0",
        "name": "Drumcoltran Tower",
        "country": "GB",
        "region": "GB-SCT",
        "coordinates": {
            "latitude": 54.996413681533106,
            "longitude": -3.7684410985799337
        },
        "built": "16th Century",
        "condition": "Intact",
        "homepage": "https://www.historicenvironment.scot/visit-a-place/places/drumcoltran-tower",
        "ownedBy": "Historic Environment Scotland",
        "type": "Tower House"
    },
    {
        "id": "019dc3af-cfbd-7749-a33c-fadb71a44e67",
        "name": "Duart Castle",
        "country": "GB",
        "region": "GB-SCT",
        "coordinates": {
            "latitude": 56.456083,
            "longitude": -5.654944
        },
        "alternativeNames": [
            "Caisteal Dhubhairt"
        ],
        "built": "13th Century",
        "condition": "Partially Restored",
        "homepage": "https://duartcastle.com",
        "ownedBy": "Sir Lachlan Maclean",
        "type": "Keepless"
    },
    {
        "id": "019dc3af-cfbd-7749-a33c-ce8dcea096da",
        "name": "Dumbarton Castle",
        "country": "GB",
        "region": "GB-SCT",
        "coordinates": {
            "latitude": 55.936063942302034,
            "longitude": -4.562769066620649
        },
        "built": "18th Century",
        "condition": "Intact",
        "homepage": "https://www.historicenvironment.scot/visit-a-place/places/dumbarton-castle",
        "ownedBy": "Historic Environment Scotland",
        "type": "Artillery Fort"
    },
    {
        "id": "019dc040-91c7-7239-a978-62a736db1546",
        "name": "Dundonald Castle",
        "country": "GB",
        "region": "GB-SCT",
        "coordinates": {
            "latitude": 55.57678408505751,
            "longitude": -4.596965375979553
        },
        "built": "14th Century",
        "condition": "Ruins",
        "homepage": "https://www.historicenvironment.scot/visit-a-place/places/dundonald-castle",
        "ownedBy": "Historic Environment Scotland",
        "type": "Tower House"
    },
    {
        "id": "019d72bd-61f4-7279-af42-0f5c03236da0",
        "name": "Dunnottar Castle",
        "country": "GB",
        "region": "GB-SCT",
        "coordinates": {
            "latitude": 56.945777,
            "longitude": -2.19719
        },
        "built": "15-17th Century",
        "condition": "Ruins",
        "homepage": "https://www.dunnottarcastle.co.uk",
        "ownedBy": "Dunecht Estates",
        "type": "Square Keep"
    },
    {
        "id": "019d72bd-61f4-7279-af42-390e9b2d5ef7",
        "name": "Dunollie Castle",
        "country": "GB",
        "region": "GB-SCT",
        "coordinates": {
            "latitude": 56.42726,
            "longitude": -5.483178
        },
        "built": "14th Century",
        "condition": "Ruins",
        "ownedBy": "Private",
        "type": "Square Keep"
    },
    {
        "id": "019d72bd-61f4-7279-af42-5d6d821645fe",
        "name": "Dunscaith Castle",
        "country": "GB",
        "region": "GB-SCT",
        "coordinates": {
            "latitude": 57.136566,
            "longitude": -5.975944
        },
        "built": "13th Century",
        "condition": "Ruins",
        "ownedBy": "Clan Macdonald of Sleat",
        "type": "Square Keep"
    },
    {
        "id": "019dc040-91c7-7239-a978-28eeb5eddf50",
        "name": "Dunskey Castle",
        "country": "GB",
        "region": "GB-SCT",
        "coordinates": {
            "latitude": 54.83546304608522,
            "longitude": -5.109755406881228
        },
        "built": "16th Century",
        "condition": "Ruins",
        "ownedBy": "Scheduled Ancient Monument",
        "type": "Tower House"
    },
    {
        "id": "019d6d69-ab71-71be-943e-fc25b4c55f0a",
        "name": "Dunstaffnage Castle",
        "country": "GB",
        "region": "GB-SCT",
        "coordinates": {
            "latitude": 56.454689,
            "longitude": -5.43746
        },
        "built": "14th Century",
        "condition": "Ruins",
        "homepage": "https://www.historicenvironment.scot/visit-a-place/places/dunstaffnage-castle-and-chapel",
        "ownedBy": "Historic Environment Scotland",
        "type": "Keepless"
    },
    {
        "id": "019d72bd-61f4-7279-af42-637e5149af67",
        "name": "Duntulm Castle",
        "country": "GB",
        "region": "GB-SCT",
        "coordinates": {
            "latitude": 57.684377,
            "longitude": -6.347094
        },
        "built": "14th Century",
        "condition": "Ruins",
        "ownedBy": "Clan Macdonald of Sleat",
        "type": "Square Keep"
    },
    {
        "id": "019d72bd-61f4-7279-af42-32b270fd8560",
        "name": "Dunure Castle",
        "country": "GB",
        "region": "GB-SCT",
        "coordinates": {
            "latitude": 55.405131,
            "longitude": -4.761903
        },
        "built": "13th Century",
        "condition": "Ruins",
        "ownedBy": "Private",
        "type": "Square Keep"
    },
    {
        "id": "019d72bd-61f4-7279-af42-4ee44bf73d38",
        "name": "Edinburgh Castle",
        "country": "GB",
        "region": "GB-SCT",
        "coordinates": {
            "latitude": 55.948595,
            "longitude": -3.199913
        },
        "built": "12-21st Century",
        "condition": "Intact",
        "homepage": "https://www.edinburghcastle.scot",
        "ownedBy": "British Government",
        "type": "Concentric"
    },
    {
        "id": "019d72bd-61f4-7279-af42-67f2ad92b34d",
        "name": "Eilean Donan Castle",
        "country": "GB",
        "region": "GB-SCT",
        "coordinates": {
            "latitude": 57.273896,
            "longitude": -5.516158
        },
        "built": "13th Century",
        "condition": "Restored",
        "ownedBy": "Conchra Charitable Trust",
        "type": "Square Keep"
    },
    {
        "id": "019dc3af-cfbd-7749-a33c-eb45d1d9abba",
        "name": "Elcho Castle",
        "country": "GB",
        "region": "GB-SCT",
        "coordinates": {
            "latitude": 56.37466129334127,
            "longitude": -3.354481937898252
        },
        "built": "16th Century",
        "condition": "Ruins",
        "homepage": "https://www.historicenvironment.scot/visit-a-place/places/elcho-castle",
        "ownedBy": "Historic Environment Scotland",
        "type": "Fortified Manor House"
    },
    {
        "id": "019dc3af-cfbd-7749-a33c-c04ef5941f5c",
        "name": "Fa'side Castle",
        "country": "GB",
        "region": "GB-SCT",
        "coordinates": {
            "latitude": 55.9279,
            "longitude": -2.9975
        },
        "alternativeNames": [
            "Fawside Castle",
            "Falside Castle"
        ],
        "built": "15th Century",
        "condition": "Restored",
        "ownedBy": "Private",
        "type": "Square Keep"
    },
    {
        "id": "019d6da0-6e5b-74f8-bd89-14c8f9aa8161",
        "name": "Falkland Palace",
        "country": "GB",
        "region": "GB-SCT",
        "coordinates": {
            "latitude": 56.254327,
            "longitude": -3.205583
        },
        "built": "12th Century",
        "condition": "Intact",
        "homepage": "https://www.nts.org.uk/visit/places/falkland-palace",
        "ownedBy": "National Trust for Scotland",
        "type": "Palace"
    },
    {
        "id": "019dc3af-cfbd-7749-a33c-bc24e77a1ed1",
        "name": "Fast Castle",
        "country": "GB",
        "region": "GB-SCT",
        "coordinates": {
            "latitude": 55.9324,
            "longitude": -2.2239
        },
        "built": "13-16th Century",
        "condition": "Fragmented Remains",
        "ownedBy": "Private",
        "type": "Keepless"
    },
    {
        "id": "019d72bd-61f4-7279-af42-1274dece73d7",
        "name": "Findlater Castle",
        "country": "GB",
        "region": "GB-SCT",
        "coordinates": {
            "latitude": 57.692451,
            "longitude": -2.770359
        },
        "built": "14th Century",
        "condition": "Ruins",
        "homepage": "https://www.findlatercastle.com",
        "ownedBy": "Unknown",
        "type": "Square Keep"
    },
    {
        "id": "019dc3af-cfbd-7749-a33d-00578c30543c",
        "name": "Glamis Castle",
        "country": "GB",
        "region": "GB-SCT",
        "coordinates": {
            "latitude": 56.62022494222361,
            "longitude": -3.0017383319239745
        },
        "built": "17th Century",
        "condition": "Intact",
        "homepage": "https://www.glamis-castle.co.uk",
        "ownedBy": "The Earl of Strathmore and Kinghorne",
        "type": "Keepless"
    },
    {
        "id": "019dc040-91c7-7239-a978-7264f321c5b5",
        "name": "Greenknowe Tower",
        "country": "GB",
        "region": "GB-SCT",
        "coordinates": {
            "latitude": 55.677748396404056,
            "longitude": -2.574747650261584
        },
        "built": "16th Century",
        "condition": "Ruins",
        "homepage": "https://www.historicenvironment.scot/visit-a-place/places/greenknowe-tower",
        "ownedBy": "Historic Environment Scotland",
        "type": "Tower House"
    },
    {
        "id": "019dc3af-cfbd-7749-a33c-f4079453e3c3",
        "name": "Gylen Castle",
        "country": "GB",
        "region": "GB-SCT",
        "coordinates": {
            "latitude": 56.3794,
            "longitude": -5.5565
        },
        "built": "16th Century",
        "condition": "Ruins",
        "ownedBy": "Scheduled Ancient Monument",
        "type": "Tower House"
    },
    {
        "id": "019d6d69-ab71-71be-943f-1d8ddb8900c6",
        "name": "Hailes Castle",
        "country": "GB",
        "region": "GB-SCT",
        "coordinates": {
            "latitude": 55.973209,
            "longitude": -2.683114
        },
        "built": "14th Century",
        "condition": "Ruins",
        "homepage": "https://www.historicenvironment.scot/visit-a-place/places/hailes-castle",
        "ownedBy": "Historic Environment Scotland",
        "type": "Square Keep"
    },
    {
        "id": "019d6d69-ab71-71be-943f-41e70919ee86",
        "name": "Hermitage Castle",
        "country": "GB",
        "region": "GB-SCT",
        "coordinates": {
            "latitude": 55.256034,
            "longitude": -2.793231
        },
        "built": "13th Century",
        "condition": "Partial Ruins",
        "homepage": "https://www.historicenvironment.scot/visit-a-place/places/hermitage-castle",
        "ownedBy": "Historic Environment Scotland",
        "type": "Keepless"
    },
    {
        "id": "019d6d69-ab71-71be-943f-446ec80b1c52",
        "name": "Hume Castle",
        "country": "GB",
        "region": "GB-SCT",
        "coordinates": {
            "latitude": 55.665147,
            "longitude": -2.470937
        },
        "built": "12th Century",
        "condition": "Ruins",
        "ownedBy": "Historic Environment Scotland",
        "type": "Keepless"
    },
    {
        "id": "019dc3af-cfbd-7749-a33c-ec8c05fbfd68",
        "name": "Huntingtower Castle",
        "country": "GB",
        "region": "GB-SCT",
        "coordinates": {
            "latitude": 56.409431877278415,
            "longitude": -3.4884129213682806
        },
        "built": "15-16th Century",
        "condition": "Ruins",
        "homepage": "https://www.historicenvironment.scot/visit-a-place/places/huntingtower-castle",
        "ownedBy": "Historic Environment Scotland",
        "type": "Tower House"
    },
    {
        "id": "019d72bd-61f4-7279-af42-5003813a7a18",
        "name": "Innerwick Castle",
        "country": "GB",
        "region": "GB-SCT",
        "coordinates": {
            "latitude": 55.955435,
            "longitude": -2.425511
        },
        "built": "14th Century",
        "condition": "Ruins",
        "ownedBy": "Scottish Wildlife Trust",
        "type": "Square Keep"
    },
    {
        "id": "019d6e33-1b59-748f-9e3f-55a12c5251fb",
        "name": "Inverallochy Castle",
        "country": "GB",
        "region": "GB-SCT",
        "coordinates": {
            "latitude": 57.656359,
            "longitude": -1.933232
        },
        "built": "16th Century",
        "condition": "Ruins",
        "ownedBy": "Historic Environment Scotland",
        "type": "Keepless"
    },
    {
        "id": "019d72bd-61f4-7279-af42-34d304364d5b",
        "name": "Kerelaw Castle",
        "country": "GB",
        "region": "GB-SCT",
        "coordinates": {
            "latitude": 55.648347,
            "longitude": -4.75236
        },
        "built": "12-13th Century",
        "condition": "Ruins",
        "ownedBy": "Local Council",
        "type": "Square Keep"
    },
    {
        "id": "019d6e33-1b59-748f-9e3f-5c9418c8d526",
        "name": "Kilchurn Castle",
        "country": "GB",
        "region": "GB-SCT",
        "coordinates": {
            "latitude": 56.403715,
            "longitude": -5.027404
        },
        "built": "15th Century",
        "condition": "Ruins",
        "homepage": "https://www.historicenvironment.scot/visit-a-place/places/kilchurn-castle",
        "ownedBy": "Historic Environment Scotland",
        "type": "Square Keep"
    },
    {
        "id": "019d6d69-ab71-71be-943e-d1c47973568f",
        "name": "Kildrummy Castle",
        "country": "GB",
        "region": "GB-SCT",
        "coordinates": {
            "latitude": 57.234555,
            "longitude": -2.904225
        },
        "built": "13th Century",
        "condition": "Ruins",
        "homepage": "https://www.historicenvironment.scot/visit-a-place/places/kildrummy-castle",
        "ownedBy": "Historic Environment Scotland",
        "type": "Square Keep"
    },
    {
        "id": "019d6d69-ab71-71be-943f-39f420629718",
        "name": "Kisimul Castle",
        "country": "GB",
        "region": "GB-SCT",
        "coordinates": {
            "latitude": 56.952134,
            "longitude": -7.487481
        },
        "built": "11th Century",
        "condition": "Partially Restored",
        "homepage": "https://www.historicenvironment.scot/visit-a-place/places/kisimul-castle",
        "ownedBy": "Historic Environment Scotland",
        "type": "Square Keep"
    },
    {
        "id": "019dc3af-cfbd-7749-a33c-c547219e814f",
        "name": "Lauriston Castle",
        "country": "GB",
        "region": "GB-SCT",
        "coordinates": {
            "latitude": 55.971199,
            "longitude": -3.278464
        },
        "built": "16th Century",
        "condition": "Intact",
        "ownedBy": "City of Edinburgh",
        "type": "Tower House"
    },
    {
        "id": "019d6d69-ab71-71be-943f-2795e248ff07",
        "name": "Linlithgow Palace",
        "country": "GB",
        "region": "GB-SCT",
        "coordinates": {
            "latitude": 55.978925,
            "longitude": -3.600841
        },
        "built": "12-17th Century",
        "condition": "Ruins",
        "homepage": "https://www.historicenvironment.scot/visit-a-place/places/linlithgow-palace",
        "ownedBy": "Historic Environment Scotland",
        "type": "Keepless"
    },
    {
        "id": "019d6e33-1b59-748f-9e3f-59460b2e1fd0",
        "name": "Loch Doon Castle",
        "country": "GB",
        "region": "GB-SCT",
        "coordinates": {
            "latitude": 55.225976,
            "longitude": -4.384875
        },
        "built": "13th Century",
        "condition": "Ruins",
        "homepage": "https://www.historicenvironment.scot/visit-a-place/places/loch-doon-castle",
        "ownedBy": "Historic Environment Scotland",
        "type": "Round Keep"
    },
    {
        "id": "019d6d69-ab71-71be-943e-db13f329e9f0",
        "name": "Lochleven Castle",
        "country": "GB",
        "region": "GB-SCT",
        "coordinates": {
            "latitude": 56.200838,
            "longitude": -3.391997
        },
        "built": "14th Century",
        "condition": "Ruins",
        "homepage": "https://www.historicenvironment.scot/visit-a-place/places/lochleven-castle",
        "ownedBy": "Historic Environment Scotland",
        "type": "Square Keep"
    },
    {
        "id": "019d6d69-ab71-71be-943f-0e36dca57d04",
        "name": "Lochmaben Castle",
        "country": "GB",
        "region": "GB-SCT",
        "coordinates": {
            "latitude": 55.116291,
            "longitude": -3.431293
        },
        "built": "13th Century",
        "condition": "Ruins",
        "homepage": "https://www.historicenvironment.scot/visit-a-place/places/lochmaben-castle",
        "ownedBy": "Historic Environment Scotland",
        "type": "Square Keep"
    },
    {
        "id": "019dc040-91c7-7239-a978-7743ea803021",
        "name": "Lochranza Castle",
        "country": "GB",
        "region": "GB-SCT",
        "coordinates": {
            "latitude": 55.70521607047339,
            "longitude": -5.291071778677572
        },
        "built": "13th Century",
        "condition": "Ruins",
        "homepage": "https://www.historicenvironment.scot/visit-a-place/places/lochranza-castle",
        "ownedBy": "Historic Environment Scotland",
        "type": "Tower House"
    },
    {
        "id": "019d72bd-61f4-7279-af42-1f5abeb14b69",
        "name": "Macduff's Castle",
        "country": "GB",
        "region": "GB-SCT",
        "coordinates": {
            "latitude": 56.16243,
            "longitude": -3.057976
        },
        "built": "11th Century",
        "condition": "Ruins",
        "ownedBy": "Wemyss Estate",
        "type": "Square Keep"
    },
    {
        "id": "019dc040-91c7-7239-a978-3d3e9dca7721",
        "name": "MacLellan’s Castle",
        "country": "GB",
        "region": "GB-SCT",
        "coordinates": {
            "latitude": 54.8370022334448,
            "longitude": -4.0528917223558185
        },
        "built": "16th Century",
        "condition": "Partial Ruins",
        "homepage": "https://www.historicenvironment.scot/visit-a-place/places/maclellans-castle",
        "ownedBy": "Historic Environment Scotland",
        "type": "Fortified Manor House"
    },
    {
        "id": "019d6d69-ab71-71be-943f-2b96b9f46334",
        "name": "Mingary Castle",
        "country": "GB",
        "region": "GB-SCT",
        "coordinates": {
            "latitude": 56.692829,
            "longitude": -6.080137
        },
        "alternativeNames": [
            "Mingarry Castle"
        ],
        "built": "13th Century",
        "condition": "Ruins",
        "ownedBy": "Historic Environment Scotland",
        "type": "Square Keep"
    },
    {
        "id": "019d6d69-ab71-71be-943f-12f12a1c4b7f",
        "name": "Morton Castle",
        "country": "GB",
        "region": "GB-SCT",
        "coordinates": {
            "latitude": 55.274477,
            "longitude": -3.747561
        },
        "built": "15th Century",
        "condition": "Ruins",
        "homepage": "https://www.historicenvironment.scot/visit-a-place/places/morton-castle",
        "ownedBy": "Historic Environment Scotland",
        "type": "Keepless"
    },
    {
        "id": "019d72bd-61f4-7279-af42-26fda03ad875",
        "name": "Mugdock Castle",
        "country": "GB",
        "region": "GB-SCT",
        "coordinates": {
            "latitude": 55.965452,
            "longitude": -4.324582
        },
        "built": "14th Century",
        "condition": "Ruins",
        "ownedBy": "Stirling Council",
        "type": "Square Keep"
    },
    {
        "id": "019d6d69-ab71-71be-943f-3f69991b243f",
        "name": "Muness Castle",
        "country": "GB",
        "region": "GB-SCT",
        "coordinates": {
            "latitude": 60.68874,
            "longitude": -0.84911
        },
        "built": "16th Century",
        "condition": "Ruins",
        "homepage": "https://www.historicenvironment.scot/visit-a-place/places/muness-castle",
        "ownedBy": "Historic Environment Scotland",
        "type": "Square Keep"
    },
    {
        "id": "019dc040-91c7-7239-a978-6fa988b19f96",
        "name": "Neidpath Castle",
        "country": "GB",
        "region": "GB-SCT",
        "coordinates": {
            "latitude": 55.65188374353739,
            "longitude": -3.2153359850808134
        },
        "built": "14th Century",
        "condition": "Ruins",
        "ownedBy": "Wemyss Family",
        "type": "Tower House"
    },
    {
        "id": "019dc3af-cfbd-7749-a33c-d2ecc72b17a7",
        "name": "Newark Castle",
        "country": "GB",
        "region": "GB-SCT",
        "coordinates": {
            "latitude": 55.9345441415794,
            "longitude": -4.678106967005913
        },
        "built": "15th Century",
        "condition": "Partial Ruins",
        "homepage": "https://www.historicenvironment.scot/visit-a-place/places/newark-castle",
        "ownedBy": "Historic Environment Scotland",
        "type": "Fortified Manor House"
    },
    {
        "id": "019d72bd-61f4-7279-af42-3d80aca55f76",
        "name": "Old Castle Lachlan",
        "country": "GB",
        "region": "GB-SCT",
        "coordinates": {
            "latitude": 56.108448,
            "longitude": -5.209425
        },
        "built": "15th Century",
        "condition": "Ruins",
        "ownedBy": "The Lachlan Trust",
        "type": "Square Keep"
    },
    {
        "id": "019d6e33-1b59-748f-9e3f-6774a9d492b3",
        "name": "Old Inverlochy Castle",
        "country": "GB",
        "region": "GB-SCT",
        "coordinates": {
            "latitude": 56.832303,
            "longitude": -5.082389
        },
        "built": "13th Century",
        "condition": "Ruins",
        "homepage": "https://www.historicenvironment.scot/visit-a-place/places/inverlochy-castle",
        "ownedBy": "Historic Environment Scotland",
        "type": "Square Keep"
    },
    {
        "id": "019dc040-91c7-7239-a978-43242e0f6449",
        "name": "Orchardton Tower",
        "country": "GB",
        "region": "GB-SCT",
        "coordinates": {
            "latitude": 54.87685059316303,
            "longitude": -3.8452647658533605
        },
        "built": "13th Century",
        "condition": "Partial Ruins",
        "homepage": "https://www.historicenvironment.scot/visit-a-place/places/orchardton-tower",
        "ownedBy": "Historic Environment Scotland",
        "type": "Tower House"
    },
    {
        "id": "019d6d69-ab71-71be-943e-d4cfda4b44e4",
        "name": "Pitsligo Castle",
        "country": "GB",
        "region": "GB-SCT",
        "coordinates": {
            "latitude": 57.692336,
            "longitude": -2.106913
        },
        "built": "15th Century",
        "condition": "Ruins",
        "ownedBy": "Historic Environment Scotland",
        "type": "Square Keep"
    },
    {
        "id": "019d6d69-ab71-71be-943e-fb31c072b01b",
        "name": "Portencross Castle",
        "country": "GB",
        "region": "GB-SCT",
        "coordinates": {
            "latitude": 55.699417,
            "longitude": -4.904999
        },
        "built": "14th Century",
        "condition": "Restored",
        "homepage": "https://portencrosscastle.org.uk",
        "ownedBy": "Historic Environment Scotland",
        "type": "Square Keep"
    },
    {
        "id": "019d6d69-ab71-71be-943e-e4c83fbd5e32",
        "name": "Ravenscraig Castle",
        "country": "GB",
        "region": "GB-SCT",
        "coordinates": {
            "latitude": 56.119906,
            "longitude": -3.142068
        },
        "built": "15th Century",
        "condition": "Ruins",
        "homepage": "https://www.historicenvironment.scot/visit-a-place/places/ravenscraig-castle",
        "ownedBy": "Historic Environment Scotland",
        "type": "Square Keep"
    },
    {
        "id": "019d6d69-ab71-71be-943f-022179d3fe07",
        "name": "Rothesay Castle",
        "country": "GB",
        "region": "GB-SCT",
        "coordinates": {
            "latitude": 55.836492,
            "longitude": -5.055103
        },
        "built": "13th Century",
        "condition": "Ruins",
        "homepage": "https://www.historicenvironment.scot/visit-a-place/places/rothesay-castle",
        "ownedBy": "Historic Environment Scotland",
        "type": "Square Keep"
    },
    {
        "id": "019dc040-91c7-7239-a978-67e8c07567d7",
        "name": "Rowallan Castle",
        "country": "GB",
        "region": "GB-SCT",
        "coordinates": {
            "latitude": 55.65008413064014,
            "longitude": -4.488994929972044
        },
        "built": "13th Century",
        "condition": "Intact",
        "ownedBy": "Campbell Family",
        "type": "Tower House"
    },
    {
        "id": "019d72bd-61f4-7279-af42-6d743c705f44",
        "name": "Roxburgh Castle",
        "country": "GB",
        "region": "GB-SCT",
        "coordinates": {
            "latitude": 55.599005,
            "longitude": -2.44994
        },
        "built": "12th Century",
        "condition": "Ruins",
        "ownedBy": "Duke of Roxburghe",
        "type": "Keepless"
    },
    {
        "id": "019d72bd-61f4-7279-af42-575e4e929a32",
        "name": "Saltcoats Castle",
        "country": "GB",
        "region": "GB-SCT",
        "coordinates": {
            "latitude": 56.027032,
            "longitude": -2.827715
        },
        "built": "16th Century",
        "condition": "Ruins",
        "ownedBy": "Hope Family",
        "type": "Keepless"
    },
    {
        "id": "019d72bd-61f4-7279-af42-4a3ea58b0fda",
        "name": "Sanquhar Castle",
        "country": "GB",
        "region": "GB-SCT",
        "coordinates": {
            "latitude": 55.361994,
            "longitude": -3.918252
        },
        "built": "13th Century",
        "condition": "Ruins",
        "ownedBy": "Private",
        "type": "Keepless"
    },
    {
        "id": "019d6e33-1b59-748f-9e3f-634460896119",
        "name": "Skipness Castle",
        "country": "GB",
        "region": "GB-SCT",
        "coordinates": {
            "latitude": 55.768012,
            "longitude": -5.336341
        },
        "built": "13th Century",
        "condition": "Ruins",
        "homepage": "https://www.historicenvironment.scot/visit-a-place/places/skipness-castle-and-chapel",
        "ownedBy": "Historic Environment Scotland",
        "type": "Square Keep"
    },
    {
        "id": "019dc040-91c7-7239-a978-309680ecbde9",
        "name": "Sorbie Tower",
        "country": "GB",
        "region": "GB-SCT",
        "coordinates": {
            "latitude": 54.793991516629845,
            "longitude": -4.411115413672897
        },
        "built": "16th Century",
        "condition": "Ruins",
        "homepage": "https://clanhannay.org/sorbie-tower",
        "ownedBy": "Clan Hannay",
        "type": "Tower House"
    },
    {
        "id": "019d6d69-ab71-71be-943e-eabae077ce71",
        "name": "St Andrews Castle",
        "country": "GB",
        "region": "GB-SCT",
        "coordinates": {
            "latitude": 56.342024,
            "longitude": -2.790305
        },
        "built": "13th Century",
        "condition": "Ruins",
        "homepage": "https://www.historicenvironment.scot/visit-a-place/places/st-andrews-castle",
        "ownedBy": "Historic Environment Scotland",
        "type": "Keepless"
    },
    {
        "id": "019dc3af-cfbd-7749-a33c-d9bed2c38674",
        "name": "Stirling Castle",
        "country": "GB",
        "region": "GB-SCT",
        "coordinates": {
            "latitude": 56.123889,
            "longitude": -3.947778
        },
        "built": "15-16th Century",
        "condition": "Partial Ruins",
        "homepage": "https://www.historicenvironment.scot/visit-a-place/places/stirling-castle",
        "ownedBy": "Historic Environment Scotland",
        "type": "Keepless"
    },
    {
        "id": "019d72bd-61f4-7279-af42-23f55693e755",
        "name": "Strathaven Castle",
        "country": "GB",
        "region": "GB-SCT",
        "coordinates": {
            "latitude": 55.676137,
            "longitude": -4.06315
        },
        "built": "14-15th Century",
        "condition": "Ruins",
        "ownedBy": "Unknown",
        "type": "Round Keep"
    },
    {
        "id": "019d6da0-6e5b-74f8-bd89-1adab35f0941",
        "name": "Strome Castle",
        "country": "GB",
        "region": "GB-SCT",
        "coordinates": {
            "latitude": 57.359181,
            "longitude": -5.555131
        },
        "built": "15th Century",
        "condition": "Ruins",
        "ownedBy": "National Trust for Scotland",
        "type": "Square Keep"
    },
    {
        "id": "019d6d69-ab71-71be-943f-20e18e683e09",
        "name": "Tantallon Castle",
        "country": "GB",
        "region": "GB-SCT",
        "coordinates": {
            "latitude": 56.056359,
            "longitude": -2.650621
        },
        "built": "14th Century",
        "condition": "Ruins",
        "homepage": "https://www.historicenvironment.scot/visit-a-place/places/tantallon-castle",
        "ownedBy": "Historic Environment Scotland",
        "type": "Keepless"
    },
    {
        "id": "019d72bd-61f4-7279-af42-42e09f390059",
        "name": "Tarbert Castle",
        "country": "GB",
        "region": "GB-SCT",
        "coordinates": {
            "latitude": 55.864361,
            "longitude": -5.408739
        },
        "built": "13th Century",
        "condition": "Ruins",
        "ownedBy": "Tarbert Castle Trust",
        "type": "Square Keep"
    },
    {
        "id": "019dc040-91c7-7239-a978-4b45888bb964",
        "name": "Threave Castle",
        "country": "GB",
        "region": "GB-SCT",
        "coordinates": {
            "latitude": 54.9392510671978,
            "longitude": -3.969542888792457
        },
        "built": "14th Century",
        "condition": "Partial Ruins",
        "homepage": "https://www.historicenvironment.scot/visit-a-place/places/threave-castle",
        "ownedBy": "Historic Environment Scotland",
        "type": "Square Keep"
    },
    {
        "id": "019d6d69-ab71-71be-943f-2d13431ffae8",
        "name": "Urquhart Castle",
        "country": "GB",
        "region": "GB-SCT",
        "coordinates": {
            "latitude": 57.32414,
            "longitude": -4.442001
        },
        "built": "13th Century",
        "condition": "Ruins",
        "homepage": "https://www.historicenvironment.scot/visit-a-place/places/urquhart-castle",
        "ownedBy": "Historic Environment Scotland",
        "type": "Square Keep"
    },
    {
        "id": "019d72bd-61f4-7279-af42-58b96b193dd6",
        "name": "Yester Castle",
        "country": "GB",
        "region": "GB-SCT",
        "coordinates": {
            "latitude": 55.891703,
            "longitude": -2.712143
        },
        "built": "13th Century",
        "condition": "Ruins",
        "ownedBy": "Private",
        "type": "Square Keep"
    },
    {
        "name": "Edzell Castle",
        "country": "GB",
        "region": "GB-SCT",
        "coordinates": {
            "latitude": 56.81154,
            "longitude": -2.68189
        },
        "built": "16th Century",
        "condition": "Ruins",
        "homepage": "https://www.historicenvironment.scot/visit-a-place/places/edzell-castle-and-garden",
        "ownedBy": "Historic Environment Scotland",
        "type": "Tower House"
    },
    {
        "name": "Blair Castle",
        "country": "GB",
        "region": "GB-SCT",
        "coordinates": {
            "latitude": 56.7736,
            "longitude": -3.8578
        },
        "built": "11-13th Century",
        "condition": "Rebuilt",
        "homepage": "https://atholl-estates.co.uk/blair-castle",
        "ownedBy": "Atholl Estates",
        "type": "Keepless"
    },
    {
        "name": "Braemar Castle",
        "country": "GB",
        "region": "GB-SCT",
        "coordinates": {
            "latitude": 57.0147,
            "longitude": -3.3914
        },
        "built": "17th Century",
        "condition": "Partially Restored",
        "homepage": "https://braemarcastle.co.uk",
        "ownedBy": "Clan Farquharson",
        "type": "Tower House"
    },
    {
        "name": "Balmoral Castle",
        "country": "GB",
        "region": "GB-SCT",
        "coordinates": {
            "latitude": 57.040833,
            "longitude": -3.23
        },
        "built": "19th Century",
        "condition": "Intact",
        "homepage": "https://balmoralcastle.com",
        "ownedBy": "British Royal Family",
        "type": "Fortified Manor House"
    },
    {
        "name": "Abergeldie Castle",
        "country": "GB",
        "region": "GB-SCT",
        "coordinates": {
            "latitude": 57.043323,
            "longitude": -3.176467
        },
        "built": "16th Century",
        "condition": "Intact",
        "homepage": "https://balmoralcastle.com",
        "ownedBy": "Gordon Family",
        "type": "Tower House"
    },
    {
        "name": "Crathes Castle",
        "country": "GB",
        "region": "GB-SCT",
        "coordinates": {
            "latitude": 57.06156,
            "longitude": -2.43995
        },
        "built": "16th Century",
        "condition": "Intact",
        "homepage": "https://www.nts.org.uk/visit/places/crathes-castle",
        "ownedBy": "National Trust for Scotland",
        "type": "Tower House"
    },
    {
        "name": "Drum Castle",
        "country": "GB",
        "region": "GB-SCT",
        "coordinates": {
            "latitude": 57.09512,
            "longitude": -2.33790
        },
        "built": "13th Century",
        "condition": "Intact",
        "homepage": "https://www.nts.org.uk/visit/places/drum-castle",
        "ownedBy": "National Trust for Scotland",
        "type": "Square Keep"
    },
    {
        "name": "Peel Ring of Lumphanan",
        "country": "GB",
        "region": "GB-SCT",
        "coordinates": {
            "latitude": 57.12229,
            "longitude": -2.70171
        },
        "built": "13th Century",
        "condition": "Fragmented Remains",
        "homepage": "https://www.historicenvironment.scot/visit-a-place/places/peel-ring-of-lumphanan",
        "ownedBy": "Historic Environment Scotland",
        "type": "Fort"
    },
    {
        "name": "Corgarff Castle",
        "country": "GB",
        "region": "GB-SCT",
        "coordinates": {
            "latitude": 57.16281,
            "longitude": -3.23423
        },
        "built": "16th Century",
        "condition": "Restored",
        "homepage": "https://www.historicenvironment.scot/visit-a-place/places/corgarff-castle",
        "ownedBy": "Historic Environment Scotland",
        "type": "Tower House"
    },
    {
        "name": "Craigievar Castle",
        "country": "GB",
        "region": "GB-SCT",
        "coordinates": {
            "latitude": 57.17418,
            "longitude": -2.71802
        },
        "built": "17th Century",
        "condition": "Intact",
        "homepage": "https://www.historicenvironment.scot/visit-a-place/places/craigievar-castle",
        "ownedBy": "Historic Environment Scotland",
        "type": "Fortified Manor House"
    },
    {
        "name": "Castle Fraser",
        "country": "GB",
        "region": "GB-SCT",
        "coordinates": {
            "latitude": 57.20298,
            "longitude": -2.46054
        },
        "built": "16-18th Century",
        "condition": "Intact",
        "homepage": "https://www.nts.org.uk/visit/places/castle-fraser",
        "ownedBy": "National Trust for Scotland",
        "type": "Tower House"
    },
    {
        "name": "Glenbuchat Castle",
        "country": "GB",
        "region": "GB-SCT",
        "coordinates": {
            "latitude": 57.22072,
            "longitude": -2.99986
        },
        "built": "16th Century",
        "condition": "Partial Ruins",
        "homepage": "https://www.historicenvironment.scot/visit-a-place/places/glenbuchat-castle",
        "ownedBy": "Historic Environment Scotland",
        "type": "Tower House"
    },
    {
        "name": "Drumin Castle",
        "country": "GB",
        "region": "GB-SCT",
        "coordinates": {
            "latitude": 57.35628,
            "longitude": -3.35728
        },
        "built": "14th Century",
        "condition": "Ruins",
        "ownedBy": "Scheduled Ancient Monument",
        "type": "Tower House"
    },
    {
        "name": "Dunnideer Castle",
        "country": "GB",
        "region": "GB-SCT",
        "coordinates": {
            "latitude": 57.34231,
            "longitude": -2.64604
        },
        "built": "13th Century",
        "condition": "Ruins",
        "ownedBy": "Scheduled Ancient Monument",
        "type": "Tower House"
    },
    {
        "name": "Inverurie Bass",
        "country": "GB",
        "region": "GB-SCT",
        "coordinates": {
            "latitude": 57.27551,
            "longitude": -2.36504
        },
        "alternativeNames": [
            "Bass of Inverurie"
        ],
        "built": "12th Century",
        "condition": "Ruins",
        "ownedBy": "Scheduled Ancient Monument",
        "type": "Motte and Bailey"
    }
]
