[
    {
        "id": "019d6d69-ab71-71be-943e-e178ecd6a795",
        "name": "Aberdour Castle",
        "country": "GB",
        "region": "GB-SCT",
        "coordinates": {
            "latitude": 56.05524,
            "longitude": -3.29829
        },
        "built": "13th Century",
        "condition": "Fragmented Remains",
        "homepage": "https://www.historicenvironment.scot/visit-a-place/places/aberdour-castle-and-gardens",
        "ownedBy": "Historic Environment Scotland",
        "type": "Square Keep"
    },
    {
        "id": "019dce56-369b-750d-88ef-8ebf309c537d",
        "name": "Abergeldie Castle",
        "country": "GB",
        "region": "GB-SCT",
        "coordinates": {
            "latitude": 57.04332,
            "longitude": -3.17647
        },
        "built": "16th Century",
        "condition": "Intact",
        "homepage": "https://balmoralcastle.com",
        "ownedBy": "Gordon Family",
        "type": "Tower House"
    },
    {
        "id": "019d72bd-61f4-7279-af42-2b0f2b62b1af",
        "name": "Ardrossan Castle",
        "country": "GB",
        "region": "GB-SCT",
        "coordinates": {
            "latitude": 55.64196,
            "longitude": -4.81015
        },
        "built": "12th Century",
        "condition": "Ruins",
        "ownedBy": "Eglintoun Family",
        "type": "Square Keep"
    },
    {
        "id": "019d72bd-61f4-7279-af42-4470e09d830f",
        "name": "Auchen Castle",
        "country": "GB",
        "region": "GB-SCT",
        "coordinates": {
            "latitude": 55.32747,
            "longitude": -3.47923
        },
        "built": "13th Century",
        "condition": "Ruins",
        "ownedBy": "Private",
        "type": "Keepless"
    },
    {
        "id": "019d72bd-61f4-7279-af42-2d18c876d8f2",
        "name": "Auchenharvie Castle",
        "country": "GB",
        "region": "GB-SCT",
        "coordinates": {
            "latitude": 55.664,
            "longitude": -4.60501
        },
        "built": "16th Century",
        "condition": "Ruins",
        "ownedBy": "Auchenharvie Farm",
        "type": "Square Keep"
    },
    {
        "id": "019d72bd-61f4-7279-af42-1a208c06104b",
        "name": "Balgonie Castle",
        "country": "GB",
        "region": "GB-SCT",
        "coordinates": {
            "latitude": 56.19376,
            "longitude": -3.10924
        },
        "built": "14th Century",
        "condition": "Restored",
        "ownedBy": "Private",
        "type": "Square Keep"
    },
    {
        "id": "019dce56-369b-750d-88ef-888f36f0e527",
        "name": "Balmoral Castle",
        "country": "GB",
        "region": "GB-SCT",
        "coordinates": {
            "latitude": 57.04083,
            "longitude": -3.23
        },
        "built": "19th Century",
        "condition": "Intact",
        "homepage": "https://balmoralcastle.com",
        "ownedBy": "British Royal Family",
        "type": "Fortified Manor House"
    },
    {
        "id": "019dc3af-cfbd-7749-a33c-e6a67908ed28",
        "name": "Balvaird Castle",
        "country": "GB",
        "region": "GB-SCT",
        "coordinates": {
            "latitude": 56.28905,
            "longitude": -3.34271
        },
        "built": "13-14th Century",
        "condition": "Ruins",
        "homepage": "https://www.historicenvironment.scot/visit-a-place/places/balvaird-castle",
        "ownedBy": "Historic Environment Scotland",
        "type": "Tower House"
    },
    {
        "id": "019dc3af-cfbd-7749-a33c-cb036b20cca6",
        "name": "Blackness Castle",
        "country": "GB",
        "region": "GB-SCT",
        "coordinates": {
            "latitude": 56.00606,
            "longitude": -3.51618
        },
        "built": "15th Century",
        "condition": "Intact",
        "homepage": "https://www.historicenvironment.scot/visit-a-place/places/blackness-castle",
        "ownedBy": "Historic Environment Scotland",
        "type": "Fort"
    },
    {
        "id": "019dce56-369b-750d-88ef-8334c0457774",
        "name": "Blair Castle",
        "country": "GB",
        "region": "GB-SCT",
        "coordinates": {
            "latitude": 56.7736,
            "longitude": -3.8578
        },
        "built": "11-13th Century",
        "condition": "Rebuilt",
        "homepage": "https://atholl-estates.co.uk/blair-castle",
        "ownedBy": "Atholl Estates",
        "type": "Keepless"
    },
    {
        "id": "019d6d69-ab71-71be-943e-ee95224cd476",
        "name": "Bothwell Castle",
        "country": "GB",
        "region": "GB-SCT",
        "coordinates": {
            "latitude": 55.80945,
            "longitude": -4.09492
        },
        "built": "13th Century",
        "condition": "Ruins",
        "homepage": "https://www.historicenvironment.scot/visit-a-place/places/bothwell-castle",
        "ownedBy": "Historic Environment Scotland",
        "type": "Round Keep"
    },
    {
        "id": "019dce56-369b-750d-88ef-85eea577302e",
        "name": "Braemar Castle",
        "country": "GB",
        "region": "GB-SCT",
        "coordinates": {
            "latitude": 57.0147,
            "longitude": -3.3914
        },
        "built": "17th Century",
        "condition": "Partially Restored",
        "homepage": "https://braemarcastle.co.uk",
        "ownedBy": "Clan Farquharson",
        "type": "Tower House"
    },
    {
        "id": "019d72bd-61f4-7279-af42-14e906a2c915",
        "name": "Broughty Castle",
        "country": "GB",
        "region": "GB-SCT",
        "coordinates": {
            "latitude": 56.46293,
            "longitude": -2.87022
        },
        "built": "15th Century",
        "condition": "Intact",
        "homepage": "https://www.historicenvironment.scot/visit-a-place/places/broughty-castle",
        "ownedBy": "Fiennes Family",
        "type": "Square Keep"
    },
    {
        "id": "019dc3af-cfbd-7749-a33c-e1f618b64896",
        "name": "Burleigh Castle",
        "country": "GB",
        "region": "GB-SCT",
        "coordinates": {
            "latitude": 56.22588,
            "longitude": -3.40652
        },
        "built": "15th Century",
        "condition": "Ruins",
        "homepage": "https://www.historicenvironment.scot/visit-a-place/places/burleigh-castle",
        "ownedBy": "Historic Environment Scotland",
        "type": "Tower House"
    },
    {
        "id": "019dc040-91c7-7239-a978-7a45cce48d43",
        "name": "Cadzow Castle",
        "country": "GB",
        "region": "GB-SCT",
        "coordinates": {
            "latitude": 55.7606,
            "longitude": -4.01732
        },
        "accessible": false,
        "built": "16th Century",
        "condition": "Ruins",
        "homepage": "https://www.historicenvironment.scot/visit-a-place/places/cadzow-castle",
        "ownedBy": "Historic Environment Scotland",
        "type": "Unknown"
    },
    {
        "id": "019d6d69-ab71-71be-943f-09ca73998280",
        "name": "Caerlaverock Castle",
        "country": "GB",
        "region": "GB-SCT",
        "coordinates": {
            "latitude": 54.97569,
            "longitude": -3.52405
        },
        "built": "13th Century",
        "condition": "Ruins",
        "homepage": "https://www.historicenvironment.scot/visit-a-place/places/caerlaverock-castle",
        "ownedBy": "Historic Environment Scotland",
        "type": "Keepless"
    },
    {
        "id": "019d6d69-ab71-71be-943f-3472e0751f13",
        "name": "Calvay Castle",
        "country": "GB",
        "region": "GB-SCT",
        "coordinates": {
            "latitude": 57.14324,
            "longitude": -7.26372
        },
        "built": "15th Century",
        "condition": "Ruins",
        "ownedBy": "Historic Environment Scotland",
        "type": "Square Keep"
    },
    {
        "id": "019dc040-91c7-7239-a978-3bfb5130deca",
        "name": "Cardoness Castle",
        "country": "GB",
        "region": "GB-SCT",
        "coordinates": {
            "latitude": 54.87245,
            "longitude": -4.19802
        },
        "built": "15th Century",
        "condition": "Partial Ruins",
        "homepage": "https://www.historicenvironment.scot/visit-a-place/places/cardoness-castle",
        "ownedBy": "Historic Environment Scotland",
        "type": "Tower House"
    },
    {
        "id": "019dc3af-cfbd-7749-a33c-d5f573d26872",
        "name": "Carnasserie Castle",
        "country": "GB",
        "region": "GB-SCT",
        "coordinates": {
            "latitude": 56.1512,
            "longitude": -5.48059
        },
        "built": "16th Century",
        "condition": "Partial Ruins",
        "homepage": "https://www.historicenvironment.scot/visit-a-place/places/carnasserie-castle",
        "ownedBy": "Historic Environment Scotland",
        "type": "Tower House"
    },
    {
        "id": "019dc040-91c7-7239-a978-363d83dde713",
        "name": "Carsluith Castle",
        "country": "GB",
        "region": "GB-SCT",
        "coordinates": {
            "latitude": 54.85952,
            "longitude": -4.34669
        },
        "built": "16th Century",
        "condition": "Ruins",
        "homepage": "https://www.historicenvironment.scot/visit-a-place/places/carsluith-castle",
        "ownedBy": "Historic Environment Scotland",
        "type": "Tower House"
    },
    {
        "id": "019dc3af-cfbd-7749-a33c-dfca3f0350b7",
        "name": "Castle Campbell",
        "country": "GB",
        "region": "GB-SCT",
        "coordinates": {
            "latitude": 56.17508,
            "longitude": -3.67468
        },
        "built": "15th Century",
        "condition": "Partial Ruins",
        "homepage": "https://www.historicenvironment.scot/visit-a-place/places/castle-campbell",
        "ownedBy": "Historic Environment Scotland",
        "type": "Tower House"
    },
    {
        "id": "019dce56-369b-750d-88ef-a7bdc3c306d3",
        "name": "Castle Fraser",
        "country": "GB",
        "region": "GB-SCT",
        "coordinates": {
            "latitude": 57.20298,
            "longitude": -2.46054
        },
        "built": "16-18th Century",
        "condition": "Intact",
        "homepage": "https://www.nts.org.uk/visit/places/castle-fraser",
        "ownedBy": "National Trust for Scotland",
        "type": "Tower House"
    },
    {
        "id": "019dc3af-cfbd-7749-a33d-04496092b8e3",
        "name": "Castle Menzies",
        "country": "GB",
        "region": "GB-SCT",
        "coordinates": {
            "latitude": 56.62392,
            "longitude": -3.89689
        },
        "built": "16th Century",
        "condition": "Intact",
        "ownedBy": "Menzies Charitable Trust",
        "type": "Fortified Manor House"
    },
    {
        "id": "019dc3af-cfbd-7749-a33c-ff65af4dbe82",
        "name": "Castle Stalker",
        "country": "GB",
        "region": "GB-SCT",
        "coordinates": {
            "latitude": 56.5715,
            "longitude": -5.38628
        },
        "alternativeNames": [
            "Caisteal an Stalcaire"
        ],
        "built": "15th Century",
        "condition": "Partially Restored",
        "ownedBy": "Allward Family",
        "type": "Tower House"
    },
    {
        "id": "019d6d69-ab71-71be-943f-04a85e7c585c",
        "name": "Castle Sween",
        "country": "GB",
        "region": "GB-SCT",
        "coordinates": {
            "latitude": 55.94793,
            "longitude": -5.66517
        },
        "built": "12th Century",
        "condition": "Ruins",
        "homepage": "https://www.historicenvironment.scot/visit-a-place/places/castle-sween",
        "ownedBy": "Historic Environment Scotland",
        "type": "Square Keep"
    },
    {
        "id": "019d6e33-1b59-748f-9e3f-68fdb0a383e1",
        "name": "Castle Tioram",
        "country": "GB",
        "region": "GB-SCT",
        "coordinates": {
            "latitude": 56.78464,
            "longitude": -5.829
        },
        "built": "14th Century",
        "condition": "Ruins",
        "ownedBy": "Historic Environment Scotland",
        "type": "Square Keep"
    },
    {
        "id": "019d6d69-ab71-71be-943f-31825f45d08f",
        "name": "Castle Varrich",
        "country": "GB",
        "region": "GB-SCT",
        "coordinates": {
            "latitude": 58.47576,
            "longitude": -4.43544
        },
        "built": "13th Century",
        "condition": "Ruins",
        "ownedBy": "Historic Environment Scotland",
        "type": "Square Keep"
    },
    {
        "id": "019dc3af-cfbd-7749-a33c-f126ec2eaa56",
        "name": "Claypotts Castle",
        "country": "GB",
        "region": "GB-SCT",
        "coordinates": {
            "latitude": 56.47649,
            "longitude": -2.89001
        },
        "built": "16th Century",
        "condition": "Partial Ruins",
        "homepage": "https://www.historicenvironment.scot/visit-a-place/places/claypotts-castle",
        "ownedBy": "Historic Environment Scotland",
        "type": "Tower House"
    },
    {
        "id": "019dce56-369b-750d-88ef-9c3a1c594350",
        "name": "Corgarff Castle",
        "country": "GB",
        "region": "GB-SCT",
        "coordinates": {
            "latitude": 57.16281,
            "longitude": -3.23423
        },
        "built": "16th Century",
        "condition": "Restored",
        "homepage": "https://www.historicenvironment.scot/visit-a-place/places/corgarff-castle",
        "ownedBy": "Historic Environment Scotland",
        "type": "Tower House"
    },
    {
        "id": "019dc040-91c7-7239-a978-6903b6e37540",
        "name": "Coulter Motte",
        "country": "GB",
        "region": "GB-SCT",
        "coordinates": {
            "latitude": 55.6104,
            "longitude": -3.55921
        },
        "built": "12th Century",
        "condition": "Fragmented Remains",
        "homepage": "https://www.historicenvironment.scot/visit-a-place/places/coulter-motte-hill",
        "ownedBy": "Historic Environment Scotland",
        "type": "Motte and Bailey"
    },
    {
        "id": "019dce56-369b-750d-88ef-a2d4521ef3b8",
        "name": "Craigievar Castle",
        "country": "GB",
        "region": "GB-SCT",
        "coordinates": {
            "latitude": 57.17418,
            "longitude": -2.71802
        },
        "built": "17th Century",
        "condition": "Intact",
        "homepage": "https://www.historicenvironment.scot/visit-a-place/places/craigievar-castle",
        "ownedBy": "Historic Environment Scotland",
        "type": "Fortified Manor House"
    },
    {
        "id": "019d6d69-ab71-71be-943f-16e82e6eafab",
        "name": "Craigmillar Castle",
        "country": "GB",
        "region": "GB-SCT",
        "coordinates": {
            "latitude": 55.92565,
            "longitude": -3.14087
        },
        "built": "14th Century",
        "condition": "Ruins",
        "homepage": "https://www.historicenvironment.scot/visit-a-place/places/craigmillar-castle",
        "ownedBy": "Historic Environment Scotland",
        "type": "Keepless"
    },
    {
        "id": "019d6d69-ab71-71be-943e-f1faa98c1e27",
        "name": "Craignethan Castle",
        "country": "GB",
        "region": "GB-SCT",
        "coordinates": {
            "latitude": 55.55801,
            "longitude": -3.87087
        },
        "built": "16th Century",
        "condition": "Ruins",
        "homepage": "https://www.historicenvironment.scot/visit-a-place/places/craignethan-castle",
        "ownedBy": "Historic Environment Scotland",
        "type": "Square Keep"
    },
    {
        "id": "019dce56-369b-750d-88ef-93d43fff2bc8",
        "name": "Crathes Castle",
        "country": "GB",
        "region": "GB-SCT",
        "coordinates": {
            "latitude": 57.06156,
            "longitude": -2.43995
        },
        "built": "16th Century",
        "condition": "Intact",
        "homepage": "https://www.nts.org.uk/visit/places/crathes-castle",
        "ownedBy": "National Trust for Scotland",
        "type": "Tower House"
    },
    {
        "id": "019dc040-91c7-7239-a978-7d7f010ff899",
        "name": "Crichton Castle",
        "country": "GB",
        "region": "GB-SCT",
        "coordinates": {
            "latitude": 55.83961,
            "longitude": -2.99141
        },
        "built": "14th Century",
        "condition": "Ruins",
        "homepage": "https://www.historicenvironment.scot/visit-a-place/places/crichton-castle",
        "ownedBy": "Historic Environment Scotland",
        "type": "Tower House"
    },
    {
        "id": "019d6d69-ab71-71be-943e-f624406e599a",
        "name": "Crookston Castle",
        "country": "GB",
        "region": "GB-SCT",
        "coordinates": {
            "latitude": 55.83514,
            "longitude": -4.35586
        },
        "built": "14th Century",
        "condition": "Ruins",
        "homepage": "https://www.historicenvironment.scot/visit-a-place/places/crookston-castle",
        "ownedBy": "Historic Environment Scotland",
        "type": "Square Keep"
    },
    {
        "id": "019dc040-91c7-7239-a978-5d1613e077a2",
        "name": "Culzean Castle",
        "country": "GB",
        "region": "GB-SCT",
        "coordinates": {
            "latitude": 55.35472,
            "longitude": -4.7893
        },
        "built": "18th Century",
        "condition": "Restored",
        "homepage": "https://www.nts.org.uk/visit/places/culzean",
        "ownedBy": "National Trust for Scotland",
        "type": "Keepless"
    },
    {
        "id": "019d72a8-a3cc-7761-bcc6-3080e73d35e8",
        "name": "Delgatie Castle",
        "country": "GB",
        "region": "GB-SCT",
        "coordinates": {
            "latitude": 57.54401,
            "longitude": -2.41207
        },
        "built": "11th Century",
        "condition": "Intact",
        "ownedBy": "Delgatie Castle Trust",
        "type": "Square Keep"
    },
    {
        "id": "019d6d69-ab71-71be-943f-185dbc468979",
        "name": "Dirleton Castle",
        "country": "GB",
        "region": "GB-SCT",
        "coordinates": {
            "latitude": 56.04592,
            "longitude": -2.77815
        },
        "built": "13th Century",
        "condition": "Ruins",
        "homepage": "https://www.historicenvironment.scot/visit-a-place/places/dirleton-castle",
        "ownedBy": "Historic Environment Scotland",
        "type": "Keepless"
    },
    {
        "id": "019d6d69-ab71-71be-943e-de82e816b4a4",
        "name": "Doune Castle",
        "country": "GB",
        "region": "GB-SCT",
        "coordinates": {
            "latitude": 56.18526,
            "longitude": -4.05016
        },
        "built": "13th Century",
        "condition": "Ruins",
        "homepage": "https://www.historicenvironment.scot/visit-a-place/places/doune-castle",
        "ownedBy": "Historic Environment Scotland",
        "type": "Square Keep"
    },
    {
        "id": "019d72bd-61f4-7279-af42-6ae6b52155a6",
        "name": "Drochil Castle",
        "country": "GB",
        "region": "GB-SCT",
        "coordinates": {
            "latitude": 55.67766,
            "longitude": -3.33415
        },
        "built": "16th Century",
        "condition": "Ruins",
        "ownedBy": "Buccleuch Family",
        "type": "Square Keep"
    },
    {
        "id": "019dc040-91c7-7239-a978-2c4f22828a3a",
        "name": "Druchtag Motte",
        "country": "GB",
        "region": "GB-SCT",
        "coordinates": {
            "latitude": 54.78765,
            "longitude": -4.5685
        },
        "built": "12th Century",
        "condition": "Fragmented Remains",
        "homepage": "https://www.historicenvironment.scot/visit-a-place/places/druchtag-motte",
        "ownedBy": "Historic Environment Scotland",
        "type": "Motte and Bailey"
    },
    {
        "id": "019dce56-369b-750d-88ef-96148b76b72d",
        "name": "Drum Castle",
        "country": "GB",
        "region": "GB-SCT",
        "coordinates": {
            "latitude": 57.09512,
            "longitude": -2.3379
        },
        "built": "13th Century",
        "condition": "Intact",
        "homepage": "https://www.nts.org.uk/visit/places/drum-castle",
        "ownedBy": "National Trust for Scotland",
        "type": "Square Keep"
    },
    {
        "id": "019dc040-91c7-7239-a978-473ce6fff6a0",
        "name": "Drumcoltran Tower",
        "country": "GB",
        "region": "GB-SCT",
        "coordinates": {
            "latitude": 54.99641,
            "longitude": -3.76844
        },
        "built": "16th Century",
        "condition": "Intact",
        "homepage": "https://www.historicenvironment.scot/visit-a-place/places/drumcoltran-tower",
        "ownedBy": "Historic Environment Scotland",
        "type": "Tower House"
    },
    {
        "id": "019dce56-369b-750d-88ef-ad0dd417e25c",
        "name": "Drumin Castle",
        "country": "GB",
        "region": "GB-SCT",
        "coordinates": {
            "latitude": 57.35628,
            "longitude": -3.35728
        },
        "built": "14th Century",
        "condition": "Ruins",
        "ownedBy": "Scheduled Ancient Monument",
        "type": "Tower House"
    },
    {
        "id": "019dc3af-cfbd-7749-a33c-fadb71a44e67",
        "name": "Duart Castle",
        "country": "GB",
        "region": "GB-SCT",
        "coordinates": {
            "latitude": 56.45608,
            "longitude": -5.65494
        },
        "alternativeNames": [
            "Caisteal Dhubhairt"
        ],
        "built": "13th Century",
        "condition": "Partially Restored",
        "homepage": "https://duartcastle.com",
        "ownedBy": "Sir Lachlan Maclean",
        "type": "Keepless"
    },
    {
        "id": "019dc3af-cfbd-7749-a33c-ce8dcea096da",
        "name": "Dumbarton Castle",
        "country": "GB",
        "region": "GB-SCT",
        "coordinates": {
            "latitude": 55.93606,
            "longitude": -4.56277
        },
        "built": "18th Century",
        "condition": "Intact",
        "homepage": "https://www.historicenvironment.scot/visit-a-place/places/dumbarton-castle",
        "ownedBy": "Historic Environment Scotland",
        "type": "Artillery Fort"
    },
    {
        "id": "019dc040-91c7-7239-a978-62a736db1546",
        "name": "Dundonald Castle",
        "country": "GB",
        "region": "GB-SCT",
        "coordinates": {
            "latitude": 55.57678,
            "longitude": -4.59697
        },
        "built": "14th Century",
        "condition": "Ruins",
        "homepage": "https://www.historicenvironment.scot/visit-a-place/places/dundonald-castle",
        "ownedBy": "Historic Environment Scotland",
        "type": "Tower House"
    },
    {
        "id": "019dce56-369b-750d-88ef-b02f25740552",
        "name": "Dunnideer Castle",
        "country": "GB",
        "region": "GB-SCT",
        "coordinates": {
            "latitude": 57.34231,
            "longitude": -2.64604
        },
        "built": "13th Century",
        "condition": "Ruins",
        "ownedBy": "Scheduled Ancient Monument",
        "type": "Tower House"
    },
    {
        "id": "019d72bd-61f4-7279-af42-0f5c03236da0",
        "name": "Dunnottar Castle",
        "country": "GB",
        "region": "GB-SCT",
        "coordinates": {
            "latitude": 56.94578,
            "longitude": -2.19719
        },
        "built": "15-17th Century",
        "condition": "Ruins",
        "homepage": "https://www.dunnottarcastle.co.uk",
        "ownedBy": "Dunecht Estates",
        "type": "Square Keep"
    },
    {
        "id": "019d72bd-61f4-7279-af42-390e9b2d5ef7",
        "name": "Dunollie Castle",
        "country": "GB",
        "region": "GB-SCT",
        "coordinates": {
            "latitude": 56.42726,
            "longitude": -5.48318
        },
        "built": "14th Century",
        "condition": "Ruins",
        "ownedBy": "Private",
        "type": "Square Keep"
    },
    {
        "id": "019d72bd-61f4-7279-af42-5d6d821645fe",
        "name": "Dunscaith Castle",
        "country": "GB",
        "region": "GB-SCT",
        "coordinates": {
            "latitude": 57.13657,
            "longitude": -5.97594
        },
        "built": "13th Century",
        "condition": "Ruins",
        "ownedBy": "Clan Macdonald of Sleat",
        "type": "Square Keep"
    },
    {
        "id": "019dc040-91c7-7239-a978-28eeb5eddf50",
        "name": "Dunskey Castle",
        "country": "GB",
        "region": "GB-SCT",
        "coordinates": {
            "latitude": 54.83546,
            "longitude": -5.10976
        },
        "built": "16th Century",
        "condition": "Ruins",
        "ownedBy": "Scheduled Ancient Monument",
        "type": "Tower House"
    },
    {
        "id": "019d6d69-ab71-71be-943e-fc25b4c55f0a",
        "name": "Dunstaffnage Castle",
        "country": "GB",
        "region": "GB-SCT",
        "coordinates": {
            "latitude": 56.45469,
            "longitude": -5.43746
        },
        "built": "14th Century",
        "condition": "Ruins",
        "homepage": "https://www.historicenvironment.scot/visit-a-place/places/dunstaffnage-castle-and-chapel",
        "ownedBy": "Historic Environment Scotland",
        "type": "Keepless"
    },
    {
        "id": "019d72bd-61f4-7279-af42-637e5149af67",
        "name": "Duntulm Castle",
        "country": "GB",
        "region": "GB-SCT",
        "coordinates": {
            "latitude": 57.68438,
            "longitude": -6.34709
        },
        "built": "14th Century",
        "condition": "Ruins",
        "ownedBy": "Clan Macdonald of Sleat",
        "type": "Square Keep"
    },
    {
        "id": "019d72bd-61f4-7279-af42-32b270fd8560",
        "name": "Dunure Castle",
        "country": "GB",
        "region": "GB-SCT",
        "coordinates": {
            "latitude": 55.40513,
            "longitude": -4.7619
        },
        "built": "13th Century",
        "condition": "Ruins",
        "ownedBy": "Private",
        "type": "Square Keep"
    },
    {
        "id": "019d72bd-61f4-7279-af42-4ee44bf73d38",
        "name": "Edinburgh Castle",
        "country": "GB",
        "region": "GB-SCT",
        "coordinates": {
            "latitude": 55.94859,
            "longitude": -3.19991
        },
        "built": "12-21st Century",
        "condition": "Intact",
        "homepage": "https://www.edinburghcastle.scot",
        "ownedBy": "British Government",
        "type": "Concentric"
    },
    {
        "id": "019dce56-369b-750d-88ef-7d4ee7f62f74",
        "name": "Edzell Castle",
        "country": "GB",
        "region": "GB-SCT",
        "coordinates": {
            "latitude": 56.81154,
            "longitude": -2.68189
        },
        "built": "16th Century",
        "condition": "Ruins",
        "homepage": "https://www.historicenvironment.scot/visit-a-place/places/edzell-castle-and-garden",
        "ownedBy": "Historic Environment Scotland",
        "type": "Tower House"
    },
    {
        "id": "019d72bd-61f4-7279-af42-67f2ad92b34d",
        "name": "Eilean Donan Castle",
        "country": "GB",
        "region": "GB-SCT",
        "coordinates": {
            "latitude": 57.2739,
            "longitude": -5.51616
        },
        "built": "13th Century",
        "condition": "Restored",
        "ownedBy": "Conchra Charitable Trust",
        "type": "Square Keep"
    },
    {
        "id": "019dc3af-cfbd-7749-a33c-eb45d1d9abba",
        "name": "Elcho Castle",
        "country": "GB",
        "region": "GB-SCT",
        "coordinates": {
            "latitude": 56.37466,
            "longitude": -3.35448
        },
        "built": "16th Century",
        "condition": "Ruins",
        "homepage": "https://www.historicenvironment.scot/visit-a-place/places/elcho-castle",
        "ownedBy": "Historic Environment Scotland",
        "type": "Fortified Manor House"
    },
    {
        "id": "019dc3af-cfbd-7749-a33c-c04ef5941f5c",
        "name": "Fa'side Castle",
        "country": "GB",
        "region": "GB-SCT",
        "coordinates": {
            "latitude": 55.9279,
            "longitude": -2.9975
        },
        "alternativeNames": [
            "Fawside Castle",
            "Falside Castle"
        ],
        "built": "15th Century",
        "condition": "Restored",
        "ownedBy": "Private",
        "type": "Square Keep"
    },
    {
        "id": "019d6da0-6e5b-74f8-bd89-14c8f9aa8161",
        "name": "Falkland Palace",
        "country": "GB",
        "region": "GB-SCT",
        "coordinates": {
            "latitude": 56.25433,
            "longitude": -3.20558
        },
        "built": "12th Century",
        "condition": "Intact",
        "homepage": "https://www.nts.org.uk/visit/places/falkland-palace",
        "ownedBy": "National Trust for Scotland",
        "type": "Palace"
    },
    {
        "id": "019dc3af-cfbd-7749-a33c-bc24e77a1ed1",
        "name": "Fast Castle",
        "country": "GB",
        "region": "GB-SCT",
        "coordinates": {
            "latitude": 55.9324,
            "longitude": -2.2239
        },
        "built": "13-16th Century",
        "condition": "Fragmented Remains",
        "ownedBy": "Private",
        "type": "Keepless"
    },
    {
        "id": "019d72bd-61f4-7279-af42-1274dece73d7",
        "name": "Findlater Castle",
        "country": "GB",
        "region": "GB-SCT",
        "coordinates": {
            "latitude": 57.69245,
            "longitude": -2.77036
        },
        "built": "14th Century",
        "condition": "Ruins",
        "homepage": "https://www.findlatercastle.com",
        "ownedBy": "Unknown",
        "type": "Square Keep"
    },
    {
        "id": "019dc3af-cfbd-7749-a33d-00578c30543c",
        "name": "Glamis Castle",
        "country": "GB",
        "region": "GB-SCT",
        "coordinates": {
            "latitude": 56.62022,
            "longitude": -3.00174
        },
        "built": "17th Century",
        "condition": "Intact",
        "homepage": "https://www.glamis-castle.co.uk",
        "ownedBy": "The Earl of Strathmore and Kinghorne",
        "type": "Keepless"
    },
    {
        "id": "019dce56-369b-750d-88ef-a82f6857135b",
        "name": "Glenbuchat Castle",
        "country": "GB",
        "region": "GB-SCT",
        "coordinates": {
            "latitude": 57.22072,
            "longitude": -2.99986
        },
        "built": "16th Century",
        "condition": "Partial Ruins",
        "homepage": "https://www.historicenvironment.scot/visit-a-place/places/glenbuchat-castle",
        "ownedBy": "Historic Environment Scotland",
        "type": "Tower House"
    },
    {
        "id": "019dc040-91c7-7239-a978-7264f321c5b5",
        "name": "Greenknowe Tower",
        "country": "GB",
        "region": "GB-SCT",
        "coordinates": {
            "latitude": 55.67775,
            "longitude": -2.57475
        },
        "built": "16th Century",
        "condition": "Ruins",
        "homepage": "https://www.historicenvironment.scot/visit-a-place/places/greenknowe-tower",
        "ownedBy": "Historic Environment Scotland",
        "type": "Tower House"
    },
    {
        "id": "019dc3af-cfbd-7749-a33c-f4079453e3c3",
        "name": "Gylen Castle",
        "country": "GB",
        "region": "GB-SCT",
        "coordinates": {
            "latitude": 56.3794,
            "longitude": -5.5565
        },
        "built": "16th Century",
        "condition": "Ruins",
        "ownedBy": "Scheduled Ancient Monument",
        "type": "Tower House"
    },
    {
        "id": "019d6d69-ab71-71be-943f-1d8ddb8900c6",
        "name": "Hailes Castle",
        "country": "GB",
        "region": "GB-SCT",
        "coordinates": {
            "latitude": 55.97321,
            "longitude": -2.68311
        },
        "built": "14th Century",
        "condition": "Ruins",
        "homepage": "https://www.historicenvironment.scot/visit-a-place/places/hailes-castle",
        "ownedBy": "Historic Environment Scotland",
        "type": "Square Keep"
    },
    {
        "id": "019d6d69-ab71-71be-943f-41e70919ee86",
        "name": "Hermitage Castle",
        "country": "GB",
        "region": "GB-SCT",
        "coordinates": {
            "latitude": 55.25603,
            "longitude": -2.79323
        },
        "built": "13th Century",
        "condition": "Partial Ruins",
        "homepage": "https://www.historicenvironment.scot/visit-a-place/places/hermitage-castle",
        "ownedBy": "Historic Environment Scotland",
        "type": "Keepless"
    },
    {
        "id": "019d6d69-ab71-71be-943f-446ec80b1c52",
        "name": "Hume Castle",
        "country": "GB",
        "region": "GB-SCT",
        "coordinates": {
            "latitude": 55.66515,
            "longitude": -2.47094
        },
        "built": "12th Century",
        "condition": "Ruins",
        "ownedBy": "Historic Environment Scotland",
        "type": "Keepless"
    },
    {
        "id": "019dc3af-cfbd-7749-a33c-ec8c05fbfd68",
        "name": "Huntingtower Castle",
        "country": "GB",
        "region": "GB-SCT",
        "coordinates": {
            "latitude": 56.40943,
            "longitude": -3.48841
        },
        "built": "15-16th Century",
        "condition": "Ruins",
        "homepage": "https://www.historicenvironment.scot/visit-a-place/places/huntingtower-castle",
        "ownedBy": "Historic Environment Scotland",
        "type": "Tower House"
    },
    {
        "id": "019d72bd-61f4-7279-af42-5003813a7a18",
        "name": "Innerwick Castle",
        "country": "GB",
        "region": "GB-SCT",
        "coordinates": {
            "latitude": 55.95544,
            "longitude": -2.42551
        },
        "built": "14th Century",
        "condition": "Ruins",
        "ownedBy": "Scottish Wildlife Trust",
        "type": "Square Keep"
    },
    {
        "id": "019d6e33-1b59-748f-9e3f-55a12c5251fb",
        "name": "Inverallochy Castle",
        "country": "GB",
        "region": "GB-SCT",
        "coordinates": {
            "latitude": 57.65636,
            "longitude": -1.93323
        },
        "built": "16th Century",
        "condition": "Ruins",
        "ownedBy": "Historic Environment Scotland",
        "type": "Keepless"
    },
    {
        "id": "019dce56-369b-750d-88ef-b7c0865ce5ff",
        "name": "Inverurie Bass",
        "country": "GB",
        "region": "GB-SCT",
        "coordinates": {
            "latitude": 57.27551,
            "longitude": -2.36504
        },
        "alternativeNames": [
            "Bass of Inverurie"
        ],
        "built": "12th Century",
        "condition": "Ruins",
        "ownedBy": "Scheduled Ancient Monument",
        "type": "Motte and Bailey"
    },
    {
        "id": "019d72bd-61f4-7279-af42-34d304364d5b",
        "name": "Kerelaw Castle",
        "country": "GB",
        "region": "GB-SCT",
        "coordinates": {
            "latitude": 55.64835,
            "longitude": -4.75236
        },
        "built": "12-13th Century",
        "condition": "Ruins",
        "ownedBy": "Local Council",
        "type": "Square Keep"
    },
    {
        "id": "019d6e33-1b59-748f-9e3f-5c9418c8d526",
        "name": "Kilchurn Castle",
        "country": "GB",
        "region": "GB-SCT",
        "coordinates": {
            "latitude": 56.40371,
            "longitude": -5.0274
        },
        "built": "15th Century",
        "condition": "Ruins",
        "homepage": "https://www.historicenvironment.scot/visit-a-place/places/kilchurn-castle",
        "ownedBy": "Historic Environment Scotland",
        "type": "Square Keep"
    },
    {
        "id": "019d6d69-ab71-71be-943e-d1c47973568f",
        "name": "Kildrummy Castle",
        "country": "GB",
        "region": "GB-SCT",
        "coordinates": {
            "latitude": 57.23456,
            "longitude": -2.90422
        },
        "built": "13th Century",
        "condition": "Ruins",
        "homepage": "https://www.historicenvironment.scot/visit-a-place/places/kildrummy-castle",
        "ownedBy": "Historic Environment Scotland",
        "type": "Square Keep"
    },
    {
        "id": "019d6d69-ab71-71be-943f-39f420629718",
        "name": "Kisimul Castle",
        "country": "GB",
        "region": "GB-SCT",
        "coordinates": {
            "latitude": 56.95213,
            "longitude": -7.48748
        },
        "built": "11th Century",
        "condition": "Partially Restored",
        "homepage": "https://www.historicenvironment.scot/visit-a-place/places/kisimul-castle",
        "ownedBy": "Historic Environment Scotland",
        "type": "Square Keep"
    },
    {
        "id": "019dc3af-cfbd-7749-a33c-c547219e814f",
        "name": "Lauriston Castle",
        "country": "GB",
        "region": "GB-SCT",
        "coordinates": {
            "latitude": 55.9712,
            "longitude": -3.27846
        },
        "built": "16th Century",
        "condition": "Intact",
        "ownedBy": "City of Edinburgh",
        "type": "Tower House"
    },
    {
        "id": "019d6d69-ab71-71be-943f-2795e248ff07",
        "name": "Linlithgow Palace",
        "country": "GB",
        "region": "GB-SCT",
        "coordinates": {
            "latitude": 55.97892,
            "longitude": -3.60084
        },
        "built": "12-17th Century",
        "condition": "Ruins",
        "homepage": "https://www.historicenvironment.scot/visit-a-place/places/linlithgow-palace",
        "ownedBy": "Historic Environment Scotland",
        "type": "Keepless"
    },
    {
        "id": "019d6e33-1b59-748f-9e3f-59460b2e1fd0",
        "name": "Loch Doon Castle",
        "country": "GB",
        "region": "GB-SCT",
        "coordinates": {
            "latitude": 55.22598,
            "longitude": -4.38488
        },
        "built": "13th Century",
        "condition": "Ruins",
        "homepage": "https://www.historicenvironment.scot/visit-a-place/places/loch-doon-castle",
        "ownedBy": "Historic Environment Scotland",
        "type": "Round Keep"
    },
    {
        "id": "019d6d69-ab71-71be-943e-db13f329e9f0",
        "name": "Lochleven Castle",
        "country": "GB",
        "region": "GB-SCT",
        "coordinates": {
            "latitude": 56.20084,
            "longitude": -3.392
        },
        "built": "14th Century",
        "condition": "Ruins",
        "homepage": "https://www.historicenvironment.scot/visit-a-place/places/lochleven-castle",
        "ownedBy": "Historic Environment Scotland",
        "type": "Square Keep"
    },
    {
        "id": "019d6d69-ab71-71be-943f-0e36dca57d04",
        "name": "Lochmaben Castle",
        "country": "GB",
        "region": "GB-SCT",
        "coordinates": {
            "latitude": 55.11629,
            "longitude": -3.43129
        },
        "built": "13th Century",
        "condition": "Ruins",
        "homepage": "https://www.historicenvironment.scot/visit-a-place/places/lochmaben-castle",
        "ownedBy": "Historic Environment Scotland",
        "type": "Square Keep"
    },
    {
        "id": "019dc040-91c7-7239-a978-7743ea803021",
        "name": "Lochranza Castle",
        "country": "GB",
        "region": "GB-SCT",
        "coordinates": {
            "latitude": 55.70522,
            "longitude": -5.29107
        },
        "built": "13th Century",
        "condition": "Ruins",
        "homepage": "https://www.historicenvironment.scot/visit-a-place/places/lochranza-castle",
        "ownedBy": "Historic Environment Scotland",
        "type": "Tower House"
    },
    {
        "id": "019d72bd-61f4-7279-af42-1f5abeb14b69",
        "name": "Macduff's Castle",
        "country": "GB",
        "region": "GB-SCT",
        "coordinates": {
            "latitude": 56.16243,
            "longitude": -3.05798
        },
        "built": "11th Century",
        "condition": "Ruins",
        "ownedBy": "Wemyss Estate",
        "type": "Square Keep"
    },
    {
        "id": "019dc040-91c7-7239-a978-3d3e9dca7721",
        "name": "MacLellan’s Castle",
        "country": "GB",
        "region": "GB-SCT",
        "coordinates": {
            "latitude": 54.837,
            "longitude": -4.05289
        },
        "built": "16th Century",
        "condition": "Partial Ruins",
        "homepage": "https://www.historicenvironment.scot/visit-a-place/places/maclellans-castle",
        "ownedBy": "Historic Environment Scotland",
        "type": "Fortified Manor House"
    },
    {
        "id": "019d6d69-ab71-71be-943f-2b96b9f46334",
        "name": "Mingary Castle",
        "country": "GB",
        "region": "GB-SCT",
        "coordinates": {
            "latitude": 56.69283,
            "longitude": -6.08014
        },
        "alternativeNames": [
            "Mingarry Castle"
        ],
        "built": "13th Century",
        "condition": "Ruins",
        "ownedBy": "Historic Environment Scotland",
        "type": "Square Keep"
    },
    {
        "id": "019d6d69-ab71-71be-943f-12f12a1c4b7f",
        "name": "Morton Castle",
        "country": "GB",
        "region": "GB-SCT",
        "coordinates": {
            "latitude": 55.27448,
            "longitude": -3.74756
        },
        "built": "15th Century",
        "condition": "Ruins",
        "homepage": "https://www.historicenvironment.scot/visit-a-place/places/morton-castle",
        "ownedBy": "Historic Environment Scotland",
        "type": "Keepless"
    },
    {
        "id": "019d72bd-61f4-7279-af42-26fda03ad875",
        "name": "Mugdock Castle",
        "country": "GB",
        "region": "GB-SCT",
        "coordinates": {
            "latitude": 55.96545,
            "longitude": -4.32458
        },
        "built": "14th Century",
        "condition": "Ruins",
        "ownedBy": "Stirling Council",
        "type": "Square Keep"
    },
    {
        "id": "019d6d69-ab71-71be-943f-3f69991b243f",
        "name": "Muness Castle",
        "country": "GB",
        "region": "GB-SCT",
        "coordinates": {
            "latitude": 60.68874,
            "longitude": -0.84911
        },
        "built": "16th Century",
        "condition": "Ruins",
        "homepage": "https://www.historicenvironment.scot/visit-a-place/places/muness-castle",
        "ownedBy": "Historic Environment Scotland",
        "type": "Square Keep"
    },
    {
        "id": "019dc040-91c7-7239-a978-6fa988b19f96",
        "name": "Neidpath Castle",
        "country": "GB",
        "region": "GB-SCT",
        "coordinates": {
            "latitude": 55.65188,
            "longitude": -3.21534
        },
        "built": "14th Century",
        "condition": "Ruins",
        "ownedBy": "Wemyss Family",
        "type": "Tower House"
    },
    {
        "id": "019dc3af-cfbd-7749-a33c-d2ecc72b17a7",
        "name": "Newark Castle",
        "country": "GB",
        "region": "GB-SCT",
        "coordinates": {
            "latitude": 55.93454,
            "longitude": -4.67811
        },
        "built": "15th Century",
        "condition": "Partial Ruins",
        "homepage": "https://www.historicenvironment.scot/visit-a-place/places/newark-castle",
        "ownedBy": "Historic Environment Scotland",
        "type": "Fortified Manor House"
    },
    {
        "id": "019d72bd-61f4-7279-af42-3d80aca55f76",
        "name": "Old Castle Lachlan",
        "country": "GB",
        "region": "GB-SCT",
        "coordinates": {
            "latitude": 56.10845,
            "longitude": -5.20943
        },
        "built": "15th Century",
        "condition": "Ruins",
        "ownedBy": "The Lachlan Trust",
        "type": "Square Keep"
    },
    {
        "id": "019d6e33-1b59-748f-9e3f-6774a9d492b3",
        "name": "Old Inverlochy Castle",
        "country": "GB",
        "region": "GB-SCT",
        "coordinates": {
            "latitude": 56.8323,
            "longitude": -5.08239
        },
        "built": "13th Century",
        "condition": "Ruins",
        "homepage": "https://www.historicenvironment.scot/visit-a-place/places/inverlochy-castle",
        "ownedBy": "Historic Environment Scotland",
        "type": "Square Keep"
    },
    {
        "id": "019dc040-91c7-7239-a978-43242e0f6449",
        "name": "Orchardton Tower",
        "country": "GB",
        "region": "GB-SCT",
        "coordinates": {
            "latitude": 54.87685,
            "longitude": -3.84526
        },
        "built": "13th Century",
        "condition": "Partial Ruins",
        "homepage": "https://www.historicenvironment.scot/visit-a-place/places/orchardton-tower",
        "ownedBy": "Historic Environment Scotland",
        "type": "Tower House"
    },
    {
        "id": "019dce56-369b-750d-88ef-98adfa3585dc",
        "name": "Peel Ring of Lumphanan",
        "country": "GB",
        "region": "GB-SCT",
        "coordinates": {
            "latitude": 57.12229,
            "longitude": -2.70171
        },
        "built": "13th Century",
        "condition": "Fragmented Remains",
        "homepage": "https://www.historicenvironment.scot/visit-a-place/places/peel-ring-of-lumphanan",
        "ownedBy": "Historic Environment Scotland",
        "type": "Fort"
    },
    {
        "id": "019d6d69-ab71-71be-943e-d4cfda4b44e4",
        "name": "Pitsligo Castle",
        "country": "GB",
        "region": "GB-SCT",
        "coordinates": {
            "latitude": 57.69234,
            "longitude": -2.10691
        },
        "built": "15th Century",
        "condition": "Ruins",
        "ownedBy": "Historic Environment Scotland",
        "type": "Square Keep"
    },
    {
        "id": "019d6d69-ab71-71be-943e-fb31c072b01b",
        "name": "Portencross Castle",
        "country": "GB",
        "region": "GB-SCT",
        "coordinates": {
            "latitude": 55.69942,
            "longitude": -4.905
        },
        "built": "14th Century",
        "condition": "Restored",
        "homepage": "https://portencrosscastle.org.uk",
        "ownedBy": "Historic Environment Scotland",
        "type": "Square Keep"
    },
    {
        "id": "019d6d69-ab71-71be-943e-e4c83fbd5e32",
        "name": "Ravenscraig Castle",
        "country": "GB",
        "region": "GB-SCT",
        "coordinates": {
            "latitude": 56.11991,
            "longitude": -3.14207
        },
        "built": "15th Century",
        "condition": "Ruins",
        "homepage": "https://www.historicenvironment.scot/visit-a-place/places/ravenscraig-castle",
        "ownedBy": "Historic Environment Scotland",
        "type": "Square Keep"
    },
    {
        "id": "019d6d69-ab71-71be-943f-022179d3fe07",
        "name": "Rothesay Castle",
        "country": "GB",
        "region": "GB-SCT",
        "coordinates": {
            "latitude": 55.83649,
            "longitude": -5.0551
        },
        "built": "13th Century",
        "condition": "Ruins",
        "homepage": "https://www.historicenvironment.scot/visit-a-place/places/rothesay-castle",
        "ownedBy": "Historic Environment Scotland",
        "type": "Square Keep"
    },
    {
        "id": "019dc040-91c7-7239-a978-67e8c07567d7",
        "name": "Rowallan Castle",
        "country": "GB",
        "region": "GB-SCT",
        "coordinates": {
            "latitude": 55.65008,
            "longitude": -4.48899
        },
        "built": "13th Century",
        "condition": "Intact",
        "ownedBy": "Campbell Family",
        "type": "Tower House"
    },
    {
        "id": "019d72bd-61f4-7279-af42-6d743c705f44",
        "name": "Roxburgh Castle",
        "country": "GB",
        "region": "GB-SCT",
        "coordinates": {
            "latitude": 55.599,
            "longitude": -2.44994
        },
        "built": "12th Century",
        "condition": "Ruins",
        "ownedBy": "Duke of Roxburghe",
        "type": "Keepless"
    },
    {
        "id": "019d72bd-61f4-7279-af42-575e4e929a32",
        "name": "Saltcoats Castle",
        "country": "GB",
        "region": "GB-SCT",
        "coordinates": {
            "latitude": 56.02703,
            "longitude": -2.82771
        },
        "built": "16th Century",
        "condition": "Ruins",
        "ownedBy": "Hope Family",
        "type": "Keepless"
    },
    {
        "id": "019d72bd-61f4-7279-af42-4a3ea58b0fda",
        "name": "Sanquhar Castle",
        "country": "GB",
        "region": "GB-SCT",
        "coordinates": {
            "latitude": 55.36199,
            "longitude": -3.91825
        },
        "built": "13th Century",
        "condition": "Ruins",
        "ownedBy": "Private",
        "type": "Keepless"
    },
    {
        "id": "019d6e33-1b59-748f-9e3f-634460896119",
        "name": "Skipness Castle",
        "country": "GB",
        "region": "GB-SCT",
        "coordinates": {
            "latitude": 55.76801,
            "longitude": -5.33634
        },
        "built": "13th Century",
        "condition": "Ruins",
        "homepage": "https://www.historicenvironment.scot/visit-a-place/places/skipness-castle-and-chapel",
        "ownedBy": "Historic Environment Scotland",
        "type": "Square Keep"
    },
    {
        "id": "019dc040-91c7-7239-a978-309680ecbde9",
        "name": "Sorbie Tower",
        "country": "GB",
        "region": "GB-SCT",
        "coordinates": {
            "latitude": 54.79399,
            "longitude": -4.41112
        },
        "built": "16th Century",
        "condition": "Ruins",
        "homepage": "https://clanhannay.org/sorbie-tower",
        "ownedBy": "Clan Hannay",
        "type": "Tower House"
    },
    {
        "id": "019d6d69-ab71-71be-943e-eabae077ce71",
        "name": "St Andrews Castle",
        "country": "GB",
        "region": "GB-SCT",
        "coordinates": {
            "latitude": 56.34202,
            "longitude": -2.79031
        },
        "built": "13th Century",
        "condition": "Ruins",
        "homepage": "https://www.historicenvironment.scot/visit-a-place/places/st-andrews-castle",
        "ownedBy": "Historic Environment Scotland",
        "type": "Keepless"
    },
    {
        "id": "019dc3af-cfbd-7749-a33c-d9bed2c38674",
        "name": "Stirling Castle",
        "country": "GB",
        "region": "GB-SCT",
        "coordinates": {
            "latitude": 56.12389,
            "longitude": -3.94778
        },
        "built": "15-16th Century",
        "condition": "Partial Ruins",
        "homepage": "https://www.historicenvironment.scot/visit-a-place/places/stirling-castle",
        "ownedBy": "Historic Environment Scotland",
        "type": "Keepless"
    },
    {
        "id": "019d72bd-61f4-7279-af42-23f55693e755",
        "name": "Strathaven Castle",
        "country": "GB",
        "region": "GB-SCT",
        "coordinates": {
            "latitude": 55.67614,
            "longitude": -4.06315
        },
        "built": "14-15th Century",
        "condition": "Ruins",
        "ownedBy": "Unknown",
        "type": "Round Keep"
    },
    {
        "id": "019d6da0-6e5b-74f8-bd89-1adab35f0941",
        "name": "Strome Castle",
        "country": "GB",
        "region": "GB-SCT",
        "coordinates": {
            "latitude": 57.35918,
            "longitude": -5.55513
        },
        "built": "15th Century",
        "condition": "Ruins",
        "ownedBy": "National Trust for Scotland",
        "type": "Square Keep"
    },
    {
        "id": "019d6d69-ab71-71be-943f-20e18e683e09",
        "name": "Tantallon Castle",
        "country": "GB",
        "region": "GB-SCT",
        "coordinates": {
            "latitude": 56.05636,
            "longitude": -2.65062
        },
        "built": "14th Century",
        "condition": "Ruins",
        "homepage": "https://www.historicenvironment.scot/visit-a-place/places/tantallon-castle",
        "ownedBy": "Historic Environment Scotland",
        "type": "Keepless"
    },
    {
        "id": "019d72bd-61f4-7279-af42-42e09f390059",
        "name": "Tarbert Castle",
        "country": "GB",
        "region": "GB-SCT",
        "coordinates": {
            "latitude": 55.86436,
            "longitude": -5.40874
        },
        "built": "13th Century",
        "condition": "Ruins",
        "ownedBy": "Tarbert Castle Trust",
        "type": "Square Keep"
    },
    {
        "id": "019dc040-91c7-7239-a978-4b45888bb964",
        "name": "Threave Castle",
        "country": "GB",
        "region": "GB-SCT",
        "coordinates": {
            "latitude": 54.93925,
            "longitude": -3.96954
        },
        "built": "14th Century",
        "condition": "Partial Ruins",
        "homepage": "https://www.historicenvironment.scot/visit-a-place/places/threave-castle",
        "ownedBy": "Historic Environment Scotland",
        "type": "Square Keep"
    },
    {
        "id": "019d6d69-ab71-71be-943f-2d13431ffae8",
        "name": "Urquhart Castle",
        "country": "GB",
        "region": "GB-SCT",
        "coordinates": {
            "latitude": 57.32414,
            "longitude": -4.442
        },
        "built": "13th Century",
        "condition": "Ruins",
        "homepage": "https://www.historicenvironment.scot/visit-a-place/places/urquhart-castle",
        "ownedBy": "Historic Environment Scotland",
        "type": "Square Keep"
    },
    {
        "id": "019d72bd-61f4-7279-af42-58b96b193dd6",
        "name": "Yester Castle",
        "country": "GB",
        "region": "GB-SCT",
        "coordinates": {
            "latitude": 55.8917,
            "longitude": -2.71214
        },
        "built": "13th Century",
        "condition": "Ruins",
        "ownedBy": "Private",
        "type": "Square Keep"
    }
]
